order_id,customer_id,date,nearest_warehouse,shopping_cart,order_price,delivery_charges,customer_lat,customer_long,coupon_discount,order_total,season,is_expedited_delivery,distance_to_nearest_warehouse,latest_customer_review,is_happy_customer
ORD295283,ID4716795524,2019-03-15,Thompson,"[('Toshika 750', 2), ('Alcon 10', 1), ('iAssist Line', 1)]",19815.0,64.96,-37.8189019,144.95313149999996,0,19879.96,Autumn,1,0.8746,don‚Äôt buy it didn‚Äôt work in the slightest bit. got a sim card and it is worthless,0
ORD103517,ID0576824418,2019-12-06,Nickolson,"[('iStream', 2), ('Olivia x460', 1)]",1525.0,96.51,-37.8197721,144.9809341,10,1469.01,Summer,1,1.0095,still learning this phone seems to be as durable as suggested by ads has been hard to find a hard case for it the jury is still out but i expect that it will preform well i will get another one soon still learning the phone limits,1
ORD277034,ID0370750698,2019-04-18,Bakers,"[('Thunder line', 1), ('Toshika 750', 1), ('Candle Inferno', 1)]",6930.0,65.12,-37.8133648,144.9884655,0,6995.12,Autumn,0,0.7034,"great toshika phone everything is great, but very slippery without case....",1
ORD464494,ID6167357828,2019-06-30,Nickolson,"[('Universe Note', 2), ('Thunder line', 2), ('Alcon 10', 1)]",20210.0,80.04,-37.8077315,144.97084019999997,5,19279.54,Winter,1,1.2146,perfect! looks brand new.,1
ORD199526,ID5967784022,2019-08-24,Nickolson,"[('Toshika 750', 2), ('Candle Inferno', 2)]",9500.0,94.31833069030517,-37.8042177,144.9676105,0,9580.81,Winter,1,1.6095,five stars as advertised. thank you!,1
ORD281821,ID0600744906,2019-10-11,Nickolson,"[('Thunder line', 1), ('Toshika 750', 1), ('Universe Note', 2), ('iStream', 2)]",13700.0,102.83,-37.8116636,144.9652288,10,12432.83,Spring,1,0.8601,good phone this phone is nice so far. the pictures come out good.,1
ORD380103,ID0419481494,2019-10-26,Bakers,"[('Toshika 750', 2), ('Universe Note', 2), ('Candle Inferno', 1)]",15970.0,79.23,-37.8187507,144.99606430000003,25,12056.73,Spring,0,0.9773,awesome universe a10 this is an awesome phone and the price was great!!,1
ORD158634,ID3218226984,2019-08-30,Thompson,"[('iStream', 2), ('Toshika 750', 1)]",13220.0,64.39,-37.8064485,144.9447076,0,11735.52,Winter,0,0.7234,five stars great phone. exceeded my expectations. best flip phone i have ever owned.,1
ORD180655,ID0373652147,2019-09-01,Thompson,"[('iAssist Line', 1), ('Thunder line', 2), ('Candle Inferno', 1)]",7015.0,84.51,-37.8120228,144.9262547,10,6398.01,Spring,0,1.8319,great midship overall good phone,1
ORD406977,ID2207661092,2019-03-11,Thompson,"[('Alcon 10', 1), ('Candle Inferno', 2), ('Universe Note', 1)]",13260.0,68.41,-37.8018117,144.9456606,0,13328.41,Autumn,0,1.2154,"great phone for the money use this everyday, no problems. very fast and easy to navigate",1
ORD255053,ID4735922440,2019-04-22,Thompson,"[('Toshika 750', 2), ('iStream', 2), ('Lucent 330S', 2)]",11400.0,61.83,-37.8055762,144.94914709999995,5,10891.83,Autumn,1,0.8109,blocked by t mobile the imei was blocked by t mobile meaning this phone was potentially stolen and sold back to me and is currently unusable.,0
ORD299675,ID1686695038,2019-11-29,Thompson,"[('Olivia x460', 1), ('iStream', 2), ('iAssist Line', 1)]",3750.0,85.02,-37.79836029999999,144.9443919,15,3272.52,Spring,0,1.6106,five stars grateful to find this phone for the price,1
ORD194777,ID0363400139,2019-09-01,Thompson,"[('Thunder line', 1), ('Candle Inferno', 2), ('Alcon 10', 1)]",11990.0,85.28,-37.799501,144.9624976,5,11475.78,Spring,0,1.9978,"for my son as a present for college books. 5 textbooks were 1/4 the price on candle than if we bought them on digico, this is my third candle. other two still working great,",1
ORD254518,ID3215191982,2019-06-04,Thompson,"[('Candle Inferno', 1), ('Olivia x460', 1), ('pearTV', 2)]",14275.0,77.29,-37.8067504,144.95299709999995,10,12924.79,Winter,1,0.8405,droid rulzs love this phone. battery life is amazing,1
ORD422724,ID0767693506,2019-01-14,Nickolson,"[('pearTV', 2), ('iStream', 2), ('Universe Note', 2), ('Thunder line', 1)]",13220.0,81.81,-37.8045539,144.9736861,5,11735.52,Summer,0,1.6048,lucent e5 play this version of lucent e5 play doe not support 5g wifi,1
ORD268859,ID0301545277,2019-12-15,Thompson,"[('iAssist Line', 2), ('Candle Inferno', 1), ('iStream', 2), ('Alcon 10', 2)]",23080.0,78.42,-37.8159285,144.9381575,5,22004.42,Summer,1,0.8634,disappointed would not work with my carrier.,0
ORD100889,ID0103116412,2019-08-04,Thompson,"[('Thunder line', 2), ('iAssist Line', 1), ('Universe Note', 2)]",13485.0,62.03,-37.8134389,144.9562177,10,12198.53,Winter,1,0.8091,avoid this phone. as far as how they work it is a decent phone. the problem with it that makes me give it one star is how often something you are doing on the phone is interrupted with pop up ads. to give you an idea while i wrote this review i was interrupted twice. good phone for the money but i would never purchase another.,0
ORD029660,ID0577458194,2019-02-10,Nickolson,"[('Toshika 750', 2), ('Lucent 330S', 1), ('Universe Note', 1)]",13320.0,69.06153335550977,-37.8187013,144.9782069,25,10063.28,Summer,0,0.7613,"great buy couldn‚Äôt be more happier with this purchase, works as advertised, and shipped fast. it was like new. highly recommend",1
ORD279614,ID1479905312,2019-06-10,Thompson,"[('Toshika 750', 2), ('Candle Inferno', 2), ('iAssist Line', 1)]",13220.0,65.07,-37.8212135,144.95571619999996,15,11735.52,Winter,0,1.2174,"like it! good quality and good price, easy to use!",1
ORD241752,ID4655129064,2019-08-11,Thompson,"[('Olivia x460', 1), ('Alcon 10', 2), ('Toshika 750', 1)]",23445.0,74.76,-37.8092956,144.9476067,5,22347.51,Winter,1,0.3789,love our little line. i don‚Äôt know what the original larger iassist can do that the line cannot do but we are pleased with our lines capabilities.,1
ORD298926,ID0581728427,2019-02-18,Thompson,"[('Toshika 750', 2), ('pearTV', 2), ('Lucent 330S', 1)]",22490.0,112.13,-37.80468270000001,144.9200194,15,19228.63,Summer,1,1.0591,love this phone for its simplicity ! lover this phone for its simiplicity. its a very very basic phone. calls/reception is excellent when talking. charge does stay for more than 1 day if you are a avg-heavy caller.,1
ORD426621,ID6197211195,2019-12-14,Thompson,"[('Alcon 10', 1), ('Toshika 750', 1)]",13270.0,87.94,-37.8147958,144.92705790000005,0,13357.94,Summer,1,1.7756,the wifi would drop often to where i could not listen to spotify or other services without buffering.,0
ORD462364,ID0417273421,2019-12-30,Bakers,"[('Candle Inferno', 2), ('pearTV', 1), ('Universe Note', 2)]",14070.0,60.43,-37.8173683,144.9887044,10,12723.43,Summer,0,1.0015,"telefono muy feo. los iconos de las aplicaciones son muy feos, y viene com muchas aplicaciones pre-instaladas de juegos que a mi no me agradan por que yo no uso juegos. el telefono es para mi una herramienta de trabajo y de comunicacion. ahi se los devuelvo.",0
ORD324703,ID0579393133,2019-04-04,Nickolson,"[('Olivia x460', 1), ('Alcon 10', 2)]",19125.0,64.66,-37.8204774,144.9589368,15,16320.91,Autumn,0,0.9566,great phone works great! needed a new phone before i went to europe and glad i bought this.,1
ORD014543,ID4655129033,2019-05-22,Thompson,"[('pearTV', 2), ('Thunder line', 2), ('Toshika 750', 1), ('Candle Inferno', 2)]",22160.0,64.7,-37.8088244,144.9488235,5,21116.7,Autumn,0,0.4554,reasonable easy to use,1
ORD477634,ID0581704428,2019-04-06,Thompson,"[('Universe Note', 2), ('iStream', 1), ('pearTV', 1)]",13360.0,66.53,-37.8102304,144.9305611,10,12090.53,Autumn,1,1.477,scam dont buy this was a waste of money phone does not work on any network its a scam to buy as there is no warranty,0
ORD261803,ID0593055575,2019-01-01,Nickolson,"[('Lucent 330S', 2), ('iStream', 1), ('Toshika 750', 1)]",6930.0,59.83,-37.81142420000001,144.9638459,5,6643.33,Summer,0,0.9428,"beat up and broken phone was broken,and beat up bad.",0
ORD301427,ID1449431612,2019-11-15,Nickolson,"[('pearTV', 1), ('Olivia x460', 1), ('Universe Note', 1)]",10985.0,72.84,-37.8159739,144.9724644,0,11057.84,Spring,0,0.3883,five stars love it. camera works really well and the display is sharp.,1
ORD266182,ID0767661779,2019-01-29,Nickolson,"[('Candle Inferno', 2), ('Lucent 330S', 1), ('Olivia x460', 2)]",4540.0,77.18,-37.8081652,144.9729806,10,4163.18,Summer,0,1.1996,"love olivia phones this is our 3rd s8+! we love this phone, reliable, long battery life, and easy to use",1
ORD024257,ID0030943508,2019-05-18,Thompson,"[('iAssist Line', 1), ('pearTV', 2)]",14845.0,81.83,-37.8024821,144.9566781,5,14184.58,Autumn,1,1.4146,"it works! this was an unlocked phone from verizon. i was skeptical if it would work with my metropcs and to my, the transfer was perfect.",1
ORD275137,ID0283334348,2019-02-14,Thompson,"[('pearTV', 2), ('Candle Inferno', 2), ('Alcon 10', 2)]",31380.0,98.58,-37.7994961,144.9491927,15,26771.58,Summer,1,1.0591,"love it my daughter loves this phone. bought it for her for christmas, and she estatic when she got it. couldn't stop thanking me. she had no idea what she was getting, which made it even better.",1
ORD407515,ID0283334270,2019-05-06,Thompson,"[('iAssist Line', 1), ('Thunder line', 2), ('Alcon 10', 1), ('Candle Inferno', 1)]",15965.0,66.75,-37.8020985,144.954713,5,15233.5,Autumn,1,1.3556,beware!!! very disappointed. phone was a model no longer sold due to an irreparable software issue that pear would give a warranty for had it been purchased there. waste of time without a phone twice. two thumbs down on this one.,0
ORD228591,ID2318333319,2019-02-27,Nickolson,"[('Olivia x460', 1), ('Toshika 750', 2)]",9865.0,99.84,-37.8076542,144.97642549999995,0,9964.84,Summer,1,1.3597,best phone the best phone on the market. dollar per performance you can't get better phone.,1
ORD368876,ID5563404250,2019-05-22,Bakers,"[('pearTV', 1), ('Thunder line', 1), ('Lucent 330S', 2)]",10950.0,82.11,-37.817382,145.0092001,5,10484.61,Autumn,1,1.4781,"the phone has worked really well and the battery life ... the phone has worked really well and the battery life has been fairly decent. it's not a brand new battery by any means, but works well.",1
ORD120490,ID3276407462,2019-09-17,Thompson,"[('Alcon 10', 1), ('iStream', 1), ('Lucent 330S', 1), ('iAssist Line', 1)]",12555.0,99.18,-37.8186039,144.94785019999995,5,12026.43,Spring,1,0.6638,"everything is fine. the screen has a different aspect as it was affected by a screen protector. it looks a little blurry. besides that, everything is fine.",1
ORD211990,ID0361775398,2019-06-29,Bakers,"[('Candle Inferno', 2), ('Lucent 330S', 2)]",3320.0,67.32,-37.8000018,144.9888741,25,2557.32,Winter,0,1.2452,five stars it's beautiful product and easy to use. i love it.,1
ORD246821,ID0202690482,2019-02-28,Thompson,"[('Lucent 330S', 1), ('Universe Note', 1), ('Thunder line', 1), ('iAssist Line', 2)]",11310.0,103.53088969853775,-37.8042426,144.9171674,15,9725.88,Summer,1,1.0591,three stars only like a pc mobile,1
ORD484297,ID1686719004,2019-03-03,Thompson,"[('pearTV', 2), ('Toshika 750', 1), ('iStream', 1)]",17090.0,67.77,-37.8012202,144.95523400000005,15,14594.27,Autumn,1,1.4632,one star would not connect to verizon service.,0
ORD237855,ID2187770690,2019-03-18,Nickolson,"[('Lucent 330S', 1), ('iStream', 1), ('Toshika 750', 2)]",13220.0,64.31,-37.8116075,144.9647411,10,11735.52,Autumn,0,0.8854,love this phone love it works great,1
ORD308055,ID0780914748,2019-02-02,Thompson,"[('Olivia x460', 2), ('Thunder line', 2), ('Alcon 10', 2)]",24710.0,81.05,-37.8009594,144.9566969,15,21084.55,Summer,0,1.5548,"good phone for my daughter good phone for my daughter, she likes it a lot and we've had no problems. did have to buy an sd card for more storage.",1
ORD267805,ID3213448175,2019-01-20,Thompson,"[('iAssist Line', 1), ('Lucent 330S', 1)]",3455.0,62.1,-37.8085707,144.9612186,15,2998.85,Summer,0,1.3255,no group texting. none.,0
ORD485454,ID1224821937,2019-01-02,Thompson,"[('Toshika 750', 2), ('Universe Note', 1)]",12090.0,93.36,-37.81416710000001,144.938031,15,10369.86,Summer,1,1.0591,love my new candle inferno - easy to use - the battery life is amazing!!,1
ORD232480,ID1449431437,2019-05-18,Thompson,"[('Universe Note', 1), ('Alcon 10', 1)]",12400.0,63.19,-37.8152811,144.9748412,0,12463.19,Autumn,0,0.5937,why pay $1k when this is just as good. for the price it can't be beat.,1
ORD336016,ID0287630821,2019-07-08,Thompson,"[('Toshika 750', 1), ('iAssist Line', 1), ('pearTV', 1)]",12855.0,63.72,-37.8062744,144.946887,10,11633.22,Winter,0,0.7125,the sound is amazing and many collections of all music,1
ORD294041,ID3215192049,2019-11-07,Thompson,"[('iAssist Line', 1), ('pearTV', 1)]",8535.0,65.65755239110828,-37.8097732,144.9474216,5,8181.68,Spring,0,0.3243,phone love this phone,1
ORD062908,ID0581782215,2019-04-22,Thompson,"[('Toshika 750', 1), ('Candle Inferno', 2), ('pearTV', 1)]",11490.0,79.47,-37.8078228,144.9403541,10,10420.47,Autumn,1,0.8002,old technology it's old technology and i can't get os newest updates like i can on a new phone.,1
ORD200901,ID0317729599,2019-11-10,Thompson,"[('Universe Note', 2), ('Thunder line', 1), ('pearTV', 1), ('iStream', 2)]",15690.0,89.32141126544579,-37.8094724,144.9573036,15,13439.53,Spring,1,0.968,five stars great,1
ORD416010,ID2950822820,2019-07-02,Thompson,"[('Olivia x460', 2), ('Candle Inferno', 2), ('pearTV', 2)]",15930.0,51.55,-37.820983,144.95408480000003,25,11999.05,Winter,0,1.1119,what is really wrong with my phone i am very disappointed with this phone. no one can hear me.the speakers have a problem. waiste of time and money,0
ORD221986,ID0781126742,2019-07-02,Bakers,"[('Thunder line', 1), ('Candle Inferno', 1), ('Toshika 750', 1), ('Olivia x460', 1)]",8155.0,74.77,-37.80677960000001,144.9994498,5,7822.02,Winter,1,0.5156,excellent quality. don't let the bad reviews stop you. i have no complaints whatsoever! screen was cclleeaann.. phone came factory unlocked as stated on digico. phone was basically in new condition.,1
ORD118748,ID0847530557,2019-07-13,Nickolson,"[('iStream', 2), ('Alcon 10', 2)]",18200.0,63.33,-37.82341029999999,144.9675596,10,16443.33,Winter,0,0.5639,four stars excellent buy,1
ORD371362,ID0250933582,2019-08-30,Bakers,"[('Olivia x460', 1), ('pearTV', 1), ('Candle Inferno', 1), ('iAssist Line', 2)]",12415.0,55.69,-37.8226149,145.0072291,5,11849.94,Winter,0,1.7568,"poor quality contacted seller to notify of a quality issue with phone (ghost image on screen that reads ""touch to explore"" at bottom and something indiscernible in middle of screen) after several days... no response!!! i offered them an opportunity to rectify situation... but they declined!",0
ORD216678,ID0844496179,2019-10-21,Thompson,"[('Olivia x460', 2), ('Thunder line', 1), ('Alcon 10', 1)]",13580.0,102.14,-37.8201061,144.95060959999995,25,10287.14,Spring,1,0.8841,one word: awesome why would you pay twice the price just to unbox this thing? buy refurbished!,1
ORD382760,ID0589756676,2019-11-26,Thompson,"[('Universe Note', 1), ('Toshika 750', 1), ('Thunder line', 2)]",12130.0,78.54,-37.8217461,144.95288019999995,0,12208.54,Spring,0,1.1319,great phone for your money i liked most things about this phone. great working at work not dropping my wifi like my old phone used to. really a very good phone for the money.,1
ORD128124,ID0594206707,2019-03-26,Nickolson,"[('Universe Note', 1), ('pearTV', 1), ('Candle Inferno', 2), ('Thunder line', 2)]",14980.0,64.81,-37.8165186,144.9646209,10,13546.81,Autumn,0,0.4913,amazing it‚Äôs like new,1
ORD351759,ID2247180695,2019-09-05,Thompson,"[('Universe Note', 1), ('Thunder line', 2), ('iAssist Line', 1), ('Toshika 750', 1)]",14355.0,103.93,-37.8187086,144.9552773,5,13741.18,Spring,1,0.9861,"five stars is a great phone, came in time, i'm very pleased ,highly recommended !!!!! i'll buy again!!",1
ORD421858,ID0030220684,2019-09-10,Bakers,"[('iStream', 2), ('Alcon 10', 1), ('Thunder line', 2)]",13610.0,62.47,-37.8090334,144.985669,15,11630.97,Spring,0,0.8478,didn't work for verizon didn't work with verizon,0
ORD223514,ID0060096991,2019-12-02,Thompson,"[('iAssist Line', 2), ('Thunder line', 2)]",8810.0,67.3,-37.8147369,144.9498791,10,7996.3,Summer,0,0.3374,appreciate your loyal customers the phone meant my expectations...thank you. i'll buy another phone soon,1
ORD032468,ID0030240831,2019-11-13,Thompson,"[('pearTV', 2), ('iStream', 1), ('Toshika 750', 1), ('Lucent 330S', 1)]",18320.0,66.67,-37.8007885,144.9570861,0,18386.67,Spring,0,1.5895,"think twice spending money on these type of phones. one of the phones does not work, does not get signal , and the camera does not work.",0
ORD251178,ID6167231014,2019-04-08,Thompson,"[('iAssist Line', 1), ('Lucent 330S', 1)]",3455.0,48.18,-37.8131494,144.9512706,0,3503.18,Autumn,0,1.0591,does not work with verizon network was not compatible to verizon network. need to return. could not get the phone to work. would not activate thru verizon.,0
ORD367437,ID1713471345,2019-12-25,Thompson,"[('Toshika 750', 2), ('Thunder line', 2)]",13000.0,90.53,-37.7993843,144.925888,15,11140.53,Summer,0,2.3788,highly recommended i love my note 8,1
ORD289125,ID4162427908,2019-06-19,Nickolson,"[('Universe Note', 1), ('iAssist Line', 1), ('Alcon 10', 2)]",23575.0,67.82864634547761,-37.8197515,144.9697679,10,21275.56,Winter,1,0.1301,one star ridiculous price - why even try to sell it for 1500?,0
ORD035927,ID0315714849,2019-10-08,Bakers,"[('iStream', 2), ('Thunder line', 2)]",4660.0,82.53,-37.8096183,145.0008213,25,3577.53,Spring,1,0.4934,this is a scam this phone is not unlocked phone was not unlocked as stated in the ad,0
ORD281188,ID5668009784,2019-04-16,Bakers,"[('Olivia x460', 2), ('iStream', 2), ('Lucent 330S', 1)]",3980.0,50.2,-37.8045464,144.99998469999997,5,3831.2,Autumn,0,0.7367,bad seller came with wrong charger and phone was very very dirty not satisfied,0
ORD399932,ID0492939880,2019-12-02,Bakers,"[('Lucent 330S', 2), ('Olivia x460', 1), ('iStream', 1)]",3835.0,103.4,-37.7993751,145.01088190000004,15,3363.15,Summer,1,1.8145,good value! i bought this for my teenage cousin and she seems very happy with it. good phone at a very good price.,1
ORD148616,ID3810929405,2019-05-29,Bakers,"[('Lucent 330S', 1), ('iStream', 1)]",1380.0,65.51,-37.8186632,144.996477,5,1376.51,Autumn,0,0.971,love this phone i really like this phone. it has better reception than my last phone. less dropped calls and clearer voice reception. like the size and how easily it opens. i am even getting used to the pink color.,1
ORD255655,ID5371634609,2019-04-20,Nickolson,"[('pearTV', 1), ('Toshika 750', 2), ('Alcon 10', 2), ('iAssist Line', 2)]",13220.0,67.54,-37.80695460000001,144.9652455,10,33637.54,Autumn,0,1.35,five stars very nice phone for the price.,1
ORD039149,ID6167441030,2019-07-03,Thompson,"[('iAssist Line', 2), ('pearTV', 2), ('Thunder line', 2), ('iStream', 1)]",21580.0,67.16,-37.8093251,144.9609251,15,18410.16,Winter,0,1.2743,easy set up like it all,1
ORD229045,ID0030948033,2019-04-01,Bakers,"[('iStream', 2), ('Thunder line', 1), ('pearTV', 2)]",15100.0,79.41,-37.813108,145.0048491,0,15179.41,Autumn,1,0.914,"can't use sd storage. do not bother buying a new sd card, nothing can be transferred to it. if there is a way to store photos and move apps to the sd card i would love to hear how to do it.",1
ORD424114,ID0250933571,2019-09-09,Bakers,"[('Olivia x460', 1), ('iAssist Line', 1), ('Alcon 10', 1), ('Lucent 330S', 1)]",13630.0,82.74,-37.8227967,145.00501630000005,0,13712.74,Spring,0,1.6645,"this phone is a serious competition to alcons. after first saying that this phone cannot work in my region, it ""changed its mind"" and it works very well, a serious competition to alcons! i recommend this phone to anyone looking for a new one.",1
ORD362874,ID2299094542,2019-05-11,Thompson,"[('Universe Note', 2), ('Candle Inferno', 1), ('Olivia x460', 2)]",9780.0,81.6,-37.8006201,144.95599209999995,0,9861.6,Autumn,1,1.5544,olivia universe s8 phone it's a great phone,1
ORD044767,ID2441346319,2019-11-29,Bakers,"[('Thunder line', 1), ('Candle Inferno', 2)]",3040.0,77.76,-37.8047445,144.9837319,5,2965.76,Spring,0,1.1682,great phone great phone for the price,1
ORD137548,ID3276387456,2019-06-28,Thompson,"[('Olivia x460', 2), ('Toshika 750', 2), ('Thunder line', 1), ('Universe Note', 1)]",16720.0,62.9,-37.8180912,144.94687869999996,10,15110.9,Winter,0,1.0591,good phone one of the best phone comparing to any other android...simialar to alcon but only 1/2 price,1
ORD265559,ID0361282814,2019-07-29,Bakers,"[('iStream', 2), ('Toshika 750', 2)]",8940.0,68.17,-37.8015905,144.98209319999995,15,7667.17,Winter,0,1.4869,"awesome phone! phone says ver!zon on the back, carrier is @tt. best phone i have ever owned. huge step up from lucent atrix, then lucent x gen 2.",1
ORD221388,ID0305912824,2019-05-04,Bakers,"[('Alcon 10', 2), ('Thunder line', 1)]",20080.0,80.51,-37.80111470000001,144.9983507,15,17148.51,Autumn,1,1.026,looked around for a cheap cell phone with good quality. it was well made looked around for a cheap cell phone with good quality. it was well made. it was a gift for my brother. he said it was very functional and he can add some other models onto it. sound very cool,1
ORD276502,ID0711778936,2019-05-28,Thompson,"[('Thunder line', 2), ('Toshika 750', 2), ('Lucent 330S', 2)]",15460.0,61.53,-37.8144423,144.9474527,0,15521.53,Autumn,0,0.1998,great gift for a love one received phone in less than 24 hours.,1
ORD103732,ID0547586436,2019-03-15,Thompson,"[('iStream', 1), ('Toshika 750', 1)]",4470.0,65.86,-37.813942,144.98448080000003,25,3418.36,Autumn,0,1.0591,"starter phone we are still pleased with the phone after having it one year. the only downfall is storage/memory which makes the phone slower. we suggest getting a memory card or upgraded phone. other than that, very good phone.",1
ORD053118,ID0207085423,2019-12-08,Thompson,"[('iAssist Line', 2), ('iStream', 2)]",4750.0,102.81,-37.8108562,145.01558300000005,0,4852.81,Summer,1,1.0591,very good this phone works very well. in fact when my husban lost his phone i ordered another one. our sim cards worked right away from our own carrier. would recommend to any one that needs to replace a phone fast.,1
ORD380920,ID4969353898,2019-04-13,Thompson,"[('Thunder line', 2), ('Universe Note', 2), ('Toshika 750', 1), ('Alcon 10', 2)]",33480.0,64.74,-37.8155051,144.935688,15,28522.74,Autumn,0,1.0493,excellent and responsible seller excellent and responsible seller,1
ORD426579,ID6197211195,2019-09-01,Thompson,"[('Alcon 10', 2), ('iStream', 2)]",18200.0,85.1,-37.8147958,144.92705790000005,10,16465.1,Spring,0,1.7756,awesome discounted price i had a great deal compared to what they were charging me at t mobile. bought it cash along a digico gift card. the phone has been return by a customer but it was brand new. i love it. smooth shipping through gold membership.,1
ORD456173,ID5957906931,2019-12-21,Nickolson,"[('Toshika 750', 2), ('Alcon 10', 1), ('iStream', 2), ('Thunder line', 2)]",22250.0,82.08,-37.80553370000001,144.9736039,0,22332.08,Summer,0,1.497,olivia universe note 5 good phone; great and reasonably priced!,1
ORD299905,ID0838386029,2019-01-17,Thompson,"[('Thunder line', 2), ('iStream', 1), ('Lucent 330S', 1), ('Candle Inferno', 1)]",6170.0,96.64,-37.8029575,144.9482791,5,5958.14,Summer,1,1.0867,five stars nice phone and prompt delivery,1
ORD009376,ID2005895252,2019-05-01,Thompson,"[('Olivia x460', 2), ('Thunder line', 2), ('iAssist Line', 2), ('Candle Inferno', 2)]",12120.0,84.4,-37.8020899,144.96595459999998,10,10992.4,Autumn,1,1.8643,i love this phone i love this phone. i bought it through digico because it was cheaper than walmart. i bought this phone and a case for 80 bucks and the phone at walmart is 100 and they dont have phone cases. so this was a great deal. we have prepaid so it works out. very pleased.,1
ORD402493,ID0287630812,2019-07-26,Thompson,"[('Olivia x460', 2), ('iStream', 2), ('Toshika 750', 2), ('Thunder line', 1)]",13570.0,76.51,-37.8057528,144.9466402,0,13646.51,Winter,1,1.0591,perfect received quickly. looks brand new and works flawlessly.,1
ORD268538,ID1833123400,2019-04-12,Thompson,"[('iAssist Line', 1), ('Universe Note', 2)]",9125.0,81.24,-37.8013431,144.95283899999995,25,6924.99,Autumn,1,1.3595,works good works good,1
ORD402183,ID4516260662,2019-10-10,Thompson,"[('Olivia x460', 1), ('Universe Note', 1)]",4675.0,100.41,-37.8082258,144.9475509,25,3606.66,Spring,1,0.4969,three stars great product. thanks,1
ORD186247,ID0577522375,2019-10-13,Thompson,"[('Lucent 330S', 2), ('Universe Note', 1), ('iStream', 2), ('iAssist Line', 2)]",10660.0,59.75,-37.822822,144.9708878,5,10186.75,Spring,0,1.0591,don't buy! it won't charge after 3 months of use.,0
ORD004179,ID0287630704,2019-12-13,Thompson,"[('Toshika 750', 2), ('Olivia x460', 1), ('pearTV', 1)]",16175.0,97.4,-37.8032789,144.9464093,15,13846.15,Summer,1,1.0474,five stars fast amagazing and perfect tks,1
ORD161416,ID2713724549,2019-03-27,Nickolson,"[('Candle Inferno', 2), ('Lucent 330S', 2), ('iStream', 2), ('Alcon 10', 1)]",12570.0,78.44,-37.8133369,144.96269009999995,5,12019.94,Autumn,1,0.8406,five stars works great!!,1
ORD111948,ID0650276838,2019-04-21,Bakers,"[('Candle Inferno', 2), ('Lucent 330S', 1), ('iAssist Line', 1), ('Universe Note', 1)]",7765.0,65.51,-37.8117087,144.982926,25,5889.26,Autumn,0,1.0989,good quality christmas gift,1
ORD403320,ID0091963255,2019-03-13,Nickolson,"[('iAssist Line', 1), ('iStream', 1), ('Lucent 330S', 2), ('Universe Note', 1)]",8285.0,79.29,-37.8109156,144.9719503,10,7535.79,Autumn,1,0.8805,nice cell phone... great value! so far so good... just activated on boost and will update review once i've broken it in a little.,1
ORD269388,ID0581741497,2019-04-14,Thompson,"[('Thunder line', 2), ('Alcon 10', 2), ('Universe Note', 1)]",25710.0,82.71,-37.8049951,144.9312408,15,21936.21,Autumn,1,1.6335,"sturdy xp. everything works--typical, sturdy xp... but, texters beware! mine did not include a predictive text option.",1
ORD352739,ID0164063178,2019-02-26,Thompson,"[('iStream', 2), ('Lucent 330S', 1), ('Candle Inferno', 2)]",2390.0,71.49,-37.8148234,144.9545676,15,2102.99,Summer,0,0.7015,"absolutely love the phone absolutely love the phone, but the charger that was sent to me was not the charger that actually came with the phone originally. i got a charger that works but isn't the cord that goes with this phone and does the fast charge.",1
ORD259288,ID0576757230,2019-06-03,Thompson,"[('Thunder line', 1), ('Toshika 750', 2), ('Alcon 10', 2), ('Candle Inferno', 1)]",29150.0,70.1,-37.8019187,144.9563717,15,24847.6,Winter,0,1.45,"five stars great device with so much to offer. i recommend buying from the seller, ""mobiles international llc."" they sent a new and reliable device and honored a warranty for a defective product on olivia's behalf. :)",1
ORD427993,ID3218226975,2019-04-12,Thompson,"[('iStream', 1), ('Thunder line', 2)]",4510.0,80.64,-37.8083698,144.94500469999997,15,3914.14,Autumn,1,0.5123,the best value price ratio xiaomi is the best and this redmi note 7 is the maximum price value,1
ORD048757,ID4061053449,2019-08-07,Bakers,"[('Olivia x460', 2), ('Candle Inferno', 2)]",3310.0,45.42,-37.8097476,144.99315159999998,5,3189.92,Winter,0,0.185,one star it was not,0
ORD326250,ID5080636820,2019-10-28,Nickolson,"[('iAssist Line', 1), ('iStream', 1)]",2375.0,74.1978835795975,-37.8070375,144.9764039,25,1863.51,Spring,0,1.4207,the truth this phone is the truth.,1
ORD088675,ID6167441039,2019-05-04,Thompson,"[('Alcon 10', 2), ('iStream', 1)]",18050.0,82.16,-37.81031,144.9615039,15,15424.66,Autumn,1,1.1625,"xaiomi mastery it,s got a great camera. so far. i am extremely pleased.",1
ORD137246,ID4716795183,2019-08-08,Thompson,"[('iAssist Line', 2), ('Alcon 10', 1), ('Thunder line', 2)]",17760.0,77.4,-37.8190718,144.952464,10,16061.4,Winter,1,0.8558,"great seller great phone, works as expected. no issues with packaging. seller shipped phone quickly and it got here before expected delivery date. thank you.",1
ORD463379,ID0681285055,2019-07-31,Bakers,"[('Lucent 330S', 2), ('iAssist Line', 1), ('Candle Inferno', 1), ('Universe Note', 2)]",12015.0,65.03,-37.8131879,144.9903765,10,10878.53,Winter,0,0.5555,good for the money love the old feel. easy to use. glad we can control internet access for our smaller kids,1
ORD018267,ID0310728586,2019-09-09,Thompson,"[('Toshika 750', 1), ('Thunder line', 2)]",8680.0,76.69,-37.8128773,144.93727019999997,5,8322.69,Spring,0,0.862,"very nice phone love this phone, big screen",1
ORD217587,ID4294474617,2019-11-09,Nickolson,"[('Thunder line', 1), ('Toshika 750', 1)]",6500.0,109.06,-37.8032198,144.9740179,15,5634.06,Spring,1,1.756,useing it rite now. this is the best phone i have ever owned hands down battery life needs a bit improvement but it is better than the alcons battery life by far everthing worked as it should.,1
ORD114710,ID0581703458,2019-12-28,Thompson,"[('iAssist Line', 2), ('Candle Inferno', 1)]",4880.0,65.9,-37.8097706,144.9300462,25,3725.9,Summer,0,1.5315,"don't waste your money this phone is no different from the a20 so don't think you are getting a better phone, in fact, it seemed as though i purchased the same phone but with a very bad fingerprint reader.",0
ORD346295,ID0248266256,2019-12-20,Thompson,"[('Lucent 330S', 1), ('Thunder line', 1)]",3410.0,104.47,-37.8263393,144.9859063,25,2661.97,Summer,1,1.6767,five stars excellent deal :-)!!,1
ORD460425,ID4633573543,2019-08-05,Thompson,"[('Alcon 10', 1), ('Thunder line', 2), ('iStream', 1)]",13460.0,66.14,-37.8054923,144.9436642,0,13526.14,Winter,0,0.8536,brand new no verizon or any other traces of other carrier software great phone! i went and turned it on at metro pcs with out a hitch . i did not try to do the warranty yet but otherwise this is a great phone for the price,1
ORD330589,ID6221450530,2019-01-11,Bakers,"[('Toshika 750', 2), ('pearTV', 2), ('iAssist Line', 1)]",23485.0,95.88,-37.8088514,144.98326269999995,15,20058.13,Summer,1,1.0603,fast budget phone for people who dont game great camera and screen. very competitive value i purchased this over the lucent g7 as it is more sleek and has a better camera for less!!,1
ORD211903,ID0767721625,2019-04-07,Nickolson,"[('Toshika 750', 1), ('Universe Note', 1)]",7770.0,68.83,-37.8036065,144.9728599,25,5896.33,Autumn,0,1.6937,good budget phone works good for a budget phone close to stock android.,1
ORD174218,ID2005895262,2019-12-18,Nickolson,"[('Toshika 750', 2), ('Alcon 10', 2), ('Lucent 330S', 2), ('pearTV', 1)]",35310.0,66.29,-37.8026334,144.966104,0,11735.52,Summer,0,1.8025,piece of junk. 2 months old and the battery is dead. phone is completely nonfunctional.,0
ORD407840,ID4884445043,2019-10-28,Thompson,"[('Toshika 750', 1), ('Lucent 330S', 2)]",6780.0,107.69,-37.8005849,144.9344349,15,5870.69,Spring,1,1.7451,"but i am very pleased with this phone i was very skeptical abut purchasing a refurbished phone, but i am very pleased with this phone.",1
ORD396277,ID0091971005,2019-02-11,Thompson,"[('Olivia x460', 2), ('Toshika 750', 1), ('Alcon 10', 1)]",15720.0,73.42,-37.8172224,144.9490057,15,13435.42,Summer,1,0.5343,"two stars why is xt1097, instead xt1095",0
ORD431690,ID5680175257,2019-09-16,Bakers,"[('iStream', 2), ('Toshika 750', 1), ('Universe Note', 1), ('Olivia x460', 2)]",10520.0,103.84,-37.8102365,144.98093590000005,0,10623.84,Spring,1,1.2576,very good phone. go for it. this is a nice phone and had no issues till date.,1
ORD291999,ID4927643641,2019-11-11,Thompson,"[('iAssist Line', 1), ('pearTV', 2), ('Thunder line', 1)]",17025.0,66.07,-37.8054636,144.9333753,10,15388.57,Spring,0,1.4472,battery life was poor disnt fix it right,0
ORD360254,ID0576868761,2019-05-15,Bakers,"[('Toshika 750', 1), ('pearTV', 1)]",10630.0,67.85,-37.8242658,144.9904381,10,9634.85,Autumn,0,1.6434,i love it! i purchased this after my phone died. i never bought a refurbished phone before and didn't know what to expect. this phone is amazing and i love it! this phone looks and performs like a brand new phone!!,1
ORD339334,ID0709970058,2019-07-09,Thompson,"[('pearTV', 1), ('Toshika 750', 1), ('Alcon 10', 1)]",19580.0,52.17,-37.814246,144.9352781,25,14737.17,Winter,0,1.0516,"do not buy.. one day the phone would not charge at all. after looking for on the internet for the similar problem ,come to find out that it happens all the time. out of the clear blue it will not charger,and that will be the end of your phone. it happeed just afer the return warranties had expired.",0
ORD378205,ID3807748037,2019-06-08,Bakers,"[('iStream', 2), ('Universe Note', 1), ('Toshika 750', 1)]",8070.0,62.49,-37.8063556,144.9979988,0,8132.49,Winter,0,0.4727,lovely phone it's a very good phone. i already ordered for my wife as well. it's worth it,1
ORD429532,ID2266562036,2019-04-22,Thompson,"[('Universe Note', 2), ('iAssist Line', 2), ('Alcon 10', 2), ('pearTV', 1)]",35560.0,80.33,-37.8119404,144.956533,5,11735.52,Autumn,1,0.8363,"brilliant phone phone operates very well. easy to get started and load profile to. fabulous pictures, bright screen and comfortable in your hand. i love the iridescent back cover. works great with mint mobile! great price for a great phone.",1
ORD302338,ID2776664747,2019-03-08,Nickolson,"[('Alcon 10', 1), ('Universe Note', 1)]",12400.0,65.95,-37.8244828,144.95532,10,11225.95,Autumn,1,1.4126,cambio de equipo el aparato no agarra se√±a de wifi l a pesar de que se le coloc√≥ una tarjeta sims nueva reci√©n comprada. quiero devoluci√≥n y que me lo cambien,0
ORD339390,ID0312719425,2019-03-20,Thompson,"[('Universe Note', 1), ('Alcon 10', 2)]",21350.0,78.172829772124,-37.8006674,144.96291580000005,5,20351.45,Autumn,0,1.931,"i'm loving the tablet so far. i really like the digico underground, and the inferno os just updated, so it has iassist on it now. :)",1
ORD498163,ID0746907669,2019-03-14,Bakers,"[('Candle Inferno', 2), ('Universe Note', 2), ('Olivia x460', 1)]",8985.0,70.89,-37.8259922,145.0171451,5,8606.64,Autumn,0,1.0591,"original super fast, elegant, powerful, waterproof, amazing battery life for less that $400.",1
ORD119276,ID2189162940,2019-05-16,Thompson,"[('iStream', 1), ('pearTV', 1), ('iAssist Line', 2), ('Toshika 750', 1)]",15230.0,79.81,-37.8117076,144.95642560000005,0,15309.81,Autumn,1,0.8298,"i will be to use my ""renewed"" with coming upgrades to my internet service.this my first smart this my first smart phone. its a big jump into the 21st century.",1
ORD064829,ID0030943323,2019-01-19,Thompson,"[('Lucent 330S', 1), ('Alcon 10', 1)]",10180.0,77.14,-37.8021155,144.94161630000005,0,10257.14,Summer,0,1.2693,five stars super fast shipping. item exactly as described.,1
ORD422381,ID5922126195,2019-04-09,Nickolson,"[('iAssist Line', 1), ('Toshika 750', 1), ('Lucent 330S', 1), ('Universe Note', 1)]",11225.0,76.74,-37.8187308,144.9714369,25,8495.49,Autumn,1,0.1665,"you can't go wrong buying this phone best phone i've ever owned better than oneplus 5t,",1
ORD200882,ID6167441078,2019-05-20,Nickolson,"[('iAssist Line', 1), ('pearTV', 1), ('Toshika 750', 2), ('Universe Note', 2)]",24075.0,65.05,-37.8157799,144.9651688,5,22936.3,Autumn,0,0.4967,five stars just love this phone.,1
ORD064374,ID0054402747,2019-11-20,Thompson,"[('pearTV', 2), ('Universe Note', 1), ('Toshika 750', 2), ('Olivia x460', 2)]",27160.0,106.01,-37.8012572,144.95395980000004,25,20476.01,Spring,1,1.4079,great deal great deal works great no problems thanks,1
ORD346792,ID0579408070,2019-08-07,Nickolson,"[('Alcon 10', 2), ('Candle Inferno', 1), ('Olivia x460', 2)]",20780.0,66.10154990820413,-37.8219224,144.96852030000005,0,20843.57,Winter,0,0.3813,awesome phone it pretty much exceeded all my expectations. i suggest getting the new glass like protective lens for it because like all phones it will scratch.,1
ORD375476,ID0571731603,2019-06-14,Thompson,"[('Olivia x460', 2), ('Universe Note', 2)]",9350.0,52.44,-37.8246356,144.9466172,10,8467.44,Winter,0,1.3322,"piece of trash the cell stopped working 7 days after i turned it on, for nothing recommended, xp is not what it was, i lost my investment, because i do not have a replacement for the damaged cell phone or my money.",0
ORD065966,ID0331143091,2019-06-21,Nickolson,"[('pearTV', 2), ('Toshika 750', 1), ('Universe Note', 2)]",23840.0,58.61,-37.7994984,144.968578,0,23898.61,Winter,0,2.1275,"another color, broken home button. it was delivered in another color with broken home button and vibration mechanism. the appearance wasn't like new, but dirty. the protection layer was poorly fixed and unproperly sized. battery and other functions are ok. overall it is sad experience, hope it happens not so often...",0
ORD288727,ID1224854722,2019-02-25,Thompson,"[('iStream', 2), ('Lucent 330S', 2), ('Universe Note', 1)]",6210.0,70.47,-37.813603,144.9401868,25,4727.97,Summer,0,0.614,great device,1
ORD086757,ID4754200367,2019-03-10,Thompson,"[('Universe Note', 1), ('Candle Inferno', 2), ('pearTV', 2), ('Alcon 10', 2)]",34830.0,83.95,-37.8149881,144.92750149999995,5,33172.45,Autumn,1,1.74,love this phone this smartphone fits well in my hand and yet is super long. we love reading books on digico candle on this phone. everything installed super fast and runs super fast. it has a long battery life. the screen is super sharp. it is very responsive. i love this phone!,1
ORD250156,ID0577523836,2019-11-15,Nickolson,"[('Universe Note', 2), ('pearTV', 2), ('Toshika 750', 2)]",28160.0,78.26,-37.825322,144.9743771,10,25422.26,Spring,0,0.8607,five stars i was completely satisfied,1
ORD292946,ID2143506124,2019-02-22,Thompson,"[('Olivia x460', 2), ('Toshika 750', 2)]",11090.0,71.94,-37.8163279,144.949857,25,8389.44,Summer,0,0.475,easy to use and the hd is awesome. the simplicity as well as the easy to follow directions to set it up is great. it does everything i want it to do.,1
ORD394876,ID0741702116,2019-12-06,Nickolson,"[('Alcon 10', 1), ('Toshika 750', 1)]",13270.0,88.25,-37.816059,144.9721774,0,13358.25,Summer,1,0.3647,five stars love phone,1
ORD348738,ID0301537539,2019-12-16,Thompson,"[('Thunder line', 1), ('iAssist Line', 1)]",4405.0,93.54,-37.8197578,144.944234,10,4058.04,Summer,1,1.0591,five stars price is amazing,1
ORD051586,ID0634774947,2019-08-19,Thompson,"[('Thunder line', 2), ('Candle Inferno', 1), ('Alcon 10', 2), ('pearTV', 1)]",29000.0,65.42,-37.8117484,144.9381916,10,26165.42,Winter,0,0.7875,i loved my old candle but this new candle is easy to use and has added security that i didn't have with my old candle.,1
ORD127336,ID0746912584,2019-02-10,Nickolson,"[('Lucent 330S', 1), ('Universe Note', 1), ('Candle Inferno', 2), ('Alcon 10', 2)]",23440.0,84.25,-37.8241714,144.9837984,0,23524.25,Summer,1,1.3982,"poor inspections for refurbished phone phone was supposed to be refurbished 9/10 rating. phone arrived with half of home button chipped off which would affect the fingerprint scanner. i bought this phone as a replacement, due to the first phone being defective. better inspection needs done, both phones have issues.",0
ORD149344,ID0588198714,2019-02-04,Nickolson,"[('Lucent 330S', 2), ('pearTV', 2)]",15080.0,73.08,-37.8122401,144.9736344,25,11383.08,Summer,0,0.7933,"excellent wp7is greater than i thought,it was faster and clean,i don't need to worry about rom or ram is not enough anymore",1
ORD264167,ID4369807449,2019-10-15,Nickolson,"[('Thunder line', 2), ('Toshika 750', 2)]",13000.0,100.78,-37.8133483,144.9719334,5,12450.78,Spring,1,0.6205,"nice phone at an excellent price! very slick bezel-less design and excellent value for a 32gb phone! it receives from toshika a free over the air upgrade to android 8 (oreo), which itself is a $50+ value.",1
ORD201468,ID0373650775,2019-11-07,Thompson,"[('Thunder line', 2), ('Universe Note', 2), ('iAssist Line', 1), ('Lucent 330S', 2)]",15945.0,72.13,-37.8087463,144.92591409999997,10,14422.63,Spring,0,1.9111,product was unable to activate received the device and was packed well to prevent any damage. once received attepted to activate the phone and after spending half a day with verizon took phone into a verizon store. was advised the phone was unable to activate. waisted too much of my time.,0
ORD198233,ID1283637397,2019-03-04,Thompson,"[('iAssist Line', 1), ('Toshika 750', 1)]",6545.0,80.82,-37.8019742,144.957198,10,5971.32,Autumn,1,1.4873,good i just bought this phone a few weeks ago and it is gorgeous. the screen just blew me away and the os is very fast and user friendly. this is the first time i try a windows phone and i have to say that it's been a wonderful experience.,1
ORD371200,ID1404216311,2019-06-23,Bakers,"[('Toshika 750', 1), ('Lucent 330S', 1), ('Olivia x460', 2)]",8000.0,65.34,-37.800966,144.9870509,0,8065.34,Winter,1,1.2362,i‚Äôm very disappointed in this once i bought this phone it glitches and freezes. i‚Äôm sending this phone back asp. i‚Äôm very disappointed in this.,0
ORD190308,ID0282825863,2019-05-15,Thompson,"[('Candle Inferno', 1), ('Universe Note', 1), ('Toshika 750', 2)]",12520.0,66.7,-37.8044626,144.95095590000005,5,11960.7,Autumn,0,0.9758,great value for a renewed phone arrived on time in basically brand new condition. would like to have had it come with a stronger charger though.,1
ORD327771,ID0176722521,2019-01-31,Nickolson,"[('iStream', 2), ('Toshika 750', 2)]",8940.0,90.08,-37.814785,144.96759430000003,10,8136.08,Summer,1,0.4577,battery life great so far. battery life is long,1
ORD397322,ID5001030328,2019-01-07,Thompson,"[('Olivia x460', 1), ('iStream', 2), ('pearTV', 2), ('Thunder line', 2)]",18505.0,71.36,-37.8115028,144.95267719999995,0,18576.36,Summer,0,0.5101,i gave it to a friend who is happy with it the shipment arrived quite quickly. unfortunately when i purchased the phone i didn't realize it was prepaid so couldn't use it. i gave it to a friend who is happy with it :) thank you very much!,1
ORD167010,ID0781137142,2019-06-11,Thompson,"[('iStream', 1), ('Lucent 330S', 2)]",2610.0,52.03,-37.8030948,144.9494928,5,2531.53,Winter,0,1.0873,"the ‚Äúcertified refurbished‚Äù phone did not work. it continued ... the ‚Äúcertified refurbished‚Äù phone did not work. it continued to power off, even with a fully charged battery. product returned and seller issued my refund promptly",0
ORD374937,ID0709970607,2019-12-26,Thompson,"[('iStream', 1), ('Universe Note', 1), ('Candle Inferno', 1)]",4030.0,96.17,-37.8153543,144.9355892,15,3521.67,Summer,1,1.0527,bought 2 i bought myself the note 6 back in january and so far i've had a great experienced with my phone. no issues. everything works just fine. battery life is amazing. last week i purchased another one for my youngest daughter as her old phone died. she loves it. i'm a total fan of xiaomi now.,1
ORD361774,ID5668009840,2019-01-17,Bakers,"[('iAssist Line', 1), ('iStream', 1)]",2375.0,82.33,-37.8106951,145.01529069999995,10,2219.83,Summer,0,1.7658,"i‚Äôm happy came fully charged, everything is working great!",1
ORD163059,ID4360100213,2019-02-05,Bakers,"[('Alcon 10', 2), ('Universe Note', 1), ('Thunder line', 2), ('iAssist Line', 2)]",30160.0,92.15,-37.8143675,144.9999414,15,25728.15,Summer,1,0.639,my daughter likes olivia but this is a prepaid phone ... my daughter likes olivia but this is a prepaid phone with a locked sim card that won't allow it to be put on our regular verizon account,1
ORD179035,ID2189162944,2019-02-20,Thompson,"[('Thunder line', 1), ('Lucent 330S', 1), ('Olivia x460', 2)]",5860.0,96.46,-37.8156406,144.9581999,0,5956.46,Summer,1,1.0331,"excellent value for money android one is awesome, with monthly updates. overall, a very good low cost mid-range phone. the only drawback is the lack of nfc technology.",1
ORD172072,ID1463547094,2019-06-22,Bakers,"[('Thunder line', 1), ('Candle Inferno', 1), ('iAssist Line', 1)]",4835.0,67.41,-37.8189642,145.00374319999997,5,4660.66,Winter,0,1.2477,great buy awesome phone. great buy,1
ORD211870,ID0575385064,2019-04-12,Nickolson,"[('Thunder line', 1), ('Candle Inferno', 2)]",3040.0,80.88,-37.8191505,144.98226110000004,10,2816.88,Autumn,1,1.1194,ho nice,1
ORD314178,ID6167417893,2019-03-04,Thompson,"[('Candle Inferno', 2), ('Thunder line', 2), ('iAssist Line', 1), ('Alcon 10', 1)]",16395.0,78.56,-37.8167573,144.95427709999996,5,15653.81,Autumn,1,0.7801,"five stars excellent, i love with my new phone",1
ORD321709,ID3144992701,2019-07-14,Bakers,"[('Alcon 10', 1), ('Thunder line', 2)]",13310.0,76.73,-37.8150449,144.98866850000005,10,12055.73,Winter,1,0.8056,very fast shipping. the phone looks perfect and works great!,1
ORD398669,ID0282854595,2019-07-02,Bakers,"[('iStream', 1), ('Olivia x460', 1)]",1375.0,82.62,-37.8019774,145.0155861,10,1320.12,Winter,1,2.0004,"great smartphone! love it! easy to use! i have only had it just over a month or so, but so far so good!",1
ORD146001,ID1277988749,2019-11-11,Bakers,"[('Thunder line', 2), ('Alcon 10', 2)]",22260.0,81.53,-37.81340529999999,145.0119362,15,19002.53,Spring,0,1.5173,great product at a great price.i like the builtin filter which is easy on youreyes.probably the best reader under 100 dollars.,1
ORD266899,ID0846546790,2019-10-08,Nickolson,"[('Thunder line', 2), ('Candle Inferno', 1), ('Toshika 750', 2)]",13430.0,71.94,-37.8187213,144.9681905,5,12830.44,Spring,0,0.1205,great phone!! omg !! this phone is beautiful..it works so good..the speaker is loud and it had no scratches on it. i was able to hook it up to metro pcs. all smilesü§óüòò,1
ORD308278,ID2288769506,2019-07-10,Bakers,"[('Alcon 10', 2), ('Toshika 750', 1), ('Candle Inferno', 1)]",22650.0,64.88,-37.801178,145.0030763,0,22714.88,Winter,0,1.1998,the digico is a great store excellent product i like it,1
ORD357633,ID5172636080,2019-06-12,Bakers,"[('iStream', 1), ('Candle Inferno', 1), ('Thunder line', 2), ('iAssist Line', 2)]",9390.0,84.88688869557447,-37.8108597,144.9996316,15,8055.69,Winter,1,0.3987,five stars the phone works great! loving it,1
ORD278548,ID0103301632,2019-05-13,Nickolson,"[('Universe Note', 2), ('Candle Inferno', 1), ('Lucent 330S', 1)]",8560.0,76.81,-37.8160743,144.96186719999997,0,8636.81,Autumn,1,0.7316,"very good quality, i love it i like it. it is cheap but the quality is very good.",1
ORD247822,ID0255058773,2019-12-15,Nickolson,"[('iStream', 1), ('iAssist Line', 1), ('Thunder line', 1), ('pearTV', 2)]",17175.0,72.94,-37.8128208,144.9718045,15,14671.69,Summer,0,0.6726,... and get a 720t but the device its in good i was expecting an 720 and get a 720t but the device its in good terms,1
ORD005448,ID1224869091,2019-03-26,Thompson,"[('Candle Inferno', 1), ('iStream', 1), ('Toshika 750', 2), ('Universe Note', 2)]",16120.0,78.37,-37.8134865,144.94080480000005,25,12168.37,Autumn,1,0.5583,"the best ever lumia 920 is fantastic mobil. after 16 hour use i have still 51 % battery left. sound with my bose headphones is first class, i read all my papers with lumia and not need anything else. no problems whatsoever. i just love this phone.",1
ORD040736,ID1124133097,2019-04-07,Bakers,"[('Universe Note', 2), ('iAssist Line', 1)]",9125.0,68.58,-37.8130627,145.0117925,25,6912.33,Autumn,1,1.4959,one star phone sucks!!! don't ever buy that piece of junk!!!,0
ORD092579,ID0591321433,2019-01-30,Nickolson,"[('iStream', 1), ('Lucent 330S', 1)]",1380.0,85.29,-37.81753970000001,144.9667006,25,1120.29,Summer,1,0.2768,perfect! i love this phone!,1
ORD080711,ID1445498733,2019-11-08,Bakers,"[('Candle Inferno', 2), ('Alcon 10', 1)]",9810.0,103.62,-37.8168593,144.98511530000005,5,9423.12,Spring,1,1.1727,"best phone ever best phone ever. i needed a new phone and i was between this one, olivia note 9, and google pixel. this is the best looking phone, way better camera, it works great with my wireless headphones, and the blue is the best.",1
ORD173144,ID0095569469,2019-05-28,Thompson,"[('Candle Inferno', 1), ('Thunder line', 2)]",4790.0,77.59095934182471,-37.8017383,144.9311332,0,4858.3,Autumn,0,1.8563,"good phone lasted 8 months before it got ""the black screen of death"" a week ago. it was already an out of date model when i bought it so i'm not too upset about it. it just pooped out at a horrible time. but all in all a great phone. camera is good and the phone runs fast.",1
ORD325558,ID5058108340,2019-08-29,Nickolson,"[('Olivia x460', 2), ('iStream', 2), ('iAssist Line', 1), ('Lucent 330S', 1)]",6205.0,62.83,-37.8223955,144.96923619999995,25,4716.58,Winter,0,0.424,perfect excellent,1
ORD205512,ID0122756700,2019-12-26,Thompson,"[('iAssist Line', 1), ('Lucent 330S', 1), ('Universe Note', 2), ('Thunder line', 2)]",14715.0,86.98,-37.8143868,144.942835,15,12594.73,Summer,1,0.4184,"so good. have not had time to use it much so far, so good. have not had time to use it much.",1
ORD462794,ID2312383365,2019-06-05,Bakers,"[('Candle Inferno', 1), ('Universe Note', 1), ('Thunder line', 1)]",6060.0,66.4,-37.8079098,145.0087219,0,6126.4,Winter,0,1.2089,"toshika quality this is a really good phone, alot of improvements over my old z3+.. does not overheat like the z3+ did. battery is not the largest but efficient. i like the bezels for usability. also it has an actual 3.5mm headphone jack vs the newer models.",1
ORD255036,ID3094966833,2019-08-26,Thompson,"[('pearTV', 1), ('Thunder line', 2), ('Candle Inferno', 2)]",11530.0,80.11,-37.7994593,144.9486811,15,9880.61,Winter,1,1.4778,five stars so far nothing bad has happen,1
ORD028708,ID0331420064,2019-11-10,Bakers,"[('Universe Note', 2), ('Thunder line', 2), ('Olivia x460', 1), ('Alcon 10', 1)]",21435.0,76.82076448118715,-37.8203354,145.0017179,5,20452.55,Spring,1,1.2845,this phone was locked to a pre-paid carrier it is not unlocked and should not have been sold in this condition. not much of a savings for the hassle of trying to get it unlocked.,0
ORD321020,ID0589397644,2019-02-23,Nickolson,"[('Universe Note', 1), ('Thunder line', 1), ('pearTV', 2), ('Toshika 750', 1)]",22570.0,93.05,-37.8125115,144.9738878,10,20406.05,Summer,1,0.7772,good price. it has every thing that i need. good price.,1
ORD422499,ID5668009839,2019-12-29,Bakers,"[('Candle Inferno', 2), ('pearTV', 2), ('Lucent 330S', 1), ('Toshika 750', 2)]",23350.0,101.21,-37.8104218,145.01380469999995,0,23451.21,Summer,1,1.6341,"love it. great deal. love the phone, bluetooth headset has great sound quality.",1
ORD154202,ID0576819798,2019-07-19,Nickolson,"[('iStream', 1), ('Candle Inferno', 1), ('pearTV', 2)]",13200.0,69.2,-37.82391610000001,144.9836785,5,12609.2,Winter,0,1.3763,useful good phone,1
ORD443903,ID2189145385,2019-03-06,Thompson,"[('Alcon 10', 1), ('Lucent 330S', 2), ('Thunder line', 1)]",13590.0,64.8,-37.8118053,144.95635880000003,10,12295.8,Autumn,1,0.8227,one star my phone service has been shut off because it has been reported stolen around the time i got it.,0
ORD432435,ID0331143091,2019-05-12,Nickolson,"[('Alcon 10', 2), ('Olivia x460', 1), ('Universe Note', 2)]",26025.0,69.95,-37.7994984,144.968578,0,26094.95,Autumn,0,2.1275,"not altice mobile compatible!!! it is not compatible with altice mobile. so, don't bother because it has a previous mobile provider somewhere in its history. otherwise, great phone!!!",1
ORD274027,ID0092139159,2019-04-13,Thompson,"[('Universe Note', 2), ('Thunder line', 1)]",9080.0,79.01,-37.8184922,144.948613,15,7797.01,Autumn,1,0.6618,just as described got the phone yesterday. was almost in perfect condition. came as described. very happy. thank you. will be buying one for my wife soon.,1
ORD200869,ID3208518267,2019-09-01,Nickolson,"[('Olivia x460', 2), ('iStream', 2)]",2750.0,98.03,-37.7997609,144.9726302,15,2435.53,Spring,1,2.114,fraud phone. took it to verizon to get it ... fraud phone. took it to verizon to get it activated. it came up fraud.,0
ORD352100,ID0579405400,2019-06-10,Nickolson,"[('Lucent 330S', 2), ('iAssist Line', 1), ('Toshika 750', 2)]",13325.0,89.23183281901416,-37.8206485,144.9589885,0,13402.31,Winter,1,0.9565,good deal a new phone to replace my old s 6 and it was brand new! works good no problems,1
ORD308914,ID1492410212,2019-02-03,Thompson,"[('iAssist Line', 1), ('Thunder line', 2), ('Universe Note', 2), ('Lucent 330S', 2)]",15945.0,104.35,-37.801992,144.9638169,10,14454.85,Summer,1,1.893,"exactly as described. great phone , looks like new.",1
ORD486992,ID4162427917,2019-03-14,Nickolson,"[('Alcon 10', 1), ('pearTV', 2)]",21570.0,63.31,-37.8197385,144.970092,10,19476.31,Autumn,0,0.1359,"love the new inferno - great for books, games, and getting online! easy to use features and perfect size screen to take on the go!",1
ORD402365,ID0571731080,2019-02-07,Thompson,"[('Toshika 750', 1), ('Thunder line', 2), ('Universe Note', 1)]",12130.0,98.8,-37.823966,144.9437262,5,11622.3,Summer,1,1.291,five stars nice,1
ORD042235,ID5424203828,2019-01-12,Nickolson,"[('Toshika 750', 1), ('iAssist Line', 1), ('Candle Inferno', 1), ('pearTV', 2)]",19595.0,93.83,-37.822573,144.9793059,25,14790.08,Summer,1,0.9653,"it should have a phisical fingerprint sensor in the back there's a lot of work to do with the fingerprint sensor but everything else is good, the screen is better that i thought i love it, thanks",1
ORD277253,ID0594172806,2019-10-07,Nickolson,"[('pearTV', 1), ('iAssist Line', 1), ('Toshika 750', 2)]",17175.0,66.34224329905084,-37.8159881,144.9662227,10,15530.64,Spring,0,0.4122,"ok, but specs different than advertised. this is a pretty decent phone for the price. however, the description is wrong. as mentioned by other reviewers, the phone has 1g of ram, not 2. screen is mediocre but serviceable.",1
ORD371018,ID4754200369,2019-08-03,Thompson,"[('Alcon 10', 1), ('iAssist Line', 1)]",11175.0,69.31,-37.8150169,144.9276057,10,10126.81,Winter,0,1.7314,"the product itself is wonderful, high configuration and reasonable price the product itself is wonderful , high configuration and reasonable price. but the delivery service is not very good .",1
ORD015638,ID2020813846,2019-01-06,Thompson,"[('pearTV', 1), ('Universe Note', 1), ('iStream', 1)]",9910.0,76.12,-37.8115721,144.9590624,5,9490.62,Summer,0,1.0618,"perfect! i replaced a olivia s4 perfect! i replaced a olivia s4, and i chose the note5 because it is a little bigger, and i like the built-in stylus. i really enjoy using it. i like having the 64gb.",1
ORD486838,ID0844482038,2019-02-04,Thompson,"[('Thunder line', 2), ('iStream', 1), ('Universe Note', 2), ('Alcon 10', 2)]",29310.0,78.87,-37.8205457,144.9485554,10,26457.87,Summer,1,0.886,"terrible i've had this phone for 4 months. it gets too hot for one, for two it's restarting constantly. call quality is terrible. completely dissatisfied.",0
ORD227183,ID1449431609,2019-02-03,Nickolson,"[('Olivia x460', 1), ('iStream', 2), ('iAssist Line', 2), ('Alcon 10', 1)]",14925.0,72.83,-37.8132915,144.97355919999995,0,14997.83,Summer,0,0.6876,great phone i use this product for personal use.,1
ORD190791,ID4633770164,2019-05-29,Thompson,"[('iAssist Line', 2), ('Alcon 10', 1)]",13400.0,49.58,-37.8070811,144.94490009999996,15,11439.58,Autumn,0,0.6511,i am disappointed the phone key pads dont work and i'm not getting a reply from the seller,0
ORD368385,ID0122817608,2019-06-15,Thompson,"[('Alcon 10', 1), ('iAssist Line', 2), ('Olivia x460', 2), ('Candle Inferno', 2)]",16710.0,66.2,-37.8221915,144.9476644,10,15105.2,Winter,0,1.0608,great arrived on time and is working just fine,1
ORD197492,ID5957906922,2019-03-04,Nickolson,"[('iStream', 2), ('Candle Inferno', 1)]",730.0,80.85,-37.8059018,144.97354019999997,10,737.85,Autumn,1,1.4559,easy to use phone the phone is great for texting! it laso has a camera to take and send pics to other people's cell. it's easy to use once you get the hang of it.,1
ORD216779,ID0778943161,2019-08-24,Bakers,"[('Olivia x460', 1), ('Candle Inferno', 2), ('iAssist Line', 2)]",6535.0,82.41,-37.8197041,145.0144204,15,5637.16,Winter,1,2.0038,"don't lose it for talking, texting and browsing",1
ORD218829,ID1479905362,2019-03-09,Thompson,"[('pearTV', 1), ('Alcon 10', 1), ('Olivia x460', 1), ('Thunder line', 2)]",20845.0,65.73,-37.8210508,144.9557246,15,17783.98,Autumn,1,1.2038,no comprar se escucha muy bajo,0
ORD046213,ID4853481708,2019-03-06,Bakers,"[('Thunder line', 1), ('Lucent 330S', 2), ('Universe Note', 2), ('Alcon 10', 1)]",20490.0,67.61,-37.7994379,145.00364219999997,15,17484.11,Autumn,0,1.3887,just like new,1
ORD446020,ID0581787751,2019-02-24,Thompson,"[('iAssist Line', 2), ('pearTV', 2), ('Olivia x460', 2)]",19520.0,99.43,-37.8038491,144.9181006,5,18643.43,Summer,1,1.0591,que no estoy conforme no es lo que esperaba tiene un cargador de iphonüò° muy decepcionada,0
ORD033475,ID2005895257,2019-10-29,Nickolson,"[('Alcon 10', 1), ('Toshika 750', 1), ('Universe Note', 2), ('iAssist Line', 1)]",22395.0,109.79,-37.8022208,144.9656789,25,16906.04,Spring,1,1.8543,great product really like for tween birthday present great for value and price.,1
ORD107713,ID0441996194,2019-05-08,Thompson,"[('Olivia x460', 2), ('Universe Note', 2), ('iStream', 1)]",9500.0,66.97,-37.82098060000001,145.00040380000004,15,8141.97,Autumn,0,1.0591,five stars excellent purchase but had to return it.,1
ORD225080,ID2705171085,2019-05-04,Nickolson,"[('pearTV', 2), ('Toshika 750', 2), ('Universe Note', 1)]",24710.0,83.73171620811283,-37.8206287,144.9707674,0,24788.32,Autumn,1,0.2504,"it's not expensive and it fits the necessities. it works perfectly, it was what i expected.",1
ORD149874,ID5402876557,2019-11-18,Nickolson,"[('Olivia x460', 2), ('iStream', 2), ('Universe Note', 2), ('pearTV', 2)]",22270.0,84.71552123283573,-37.81883,144.97382439999996,25,16800.05,Spring,1,0.3767,easy to use bought as a replacement phone for prepaid. easy to use and compact enough to put in a tight pocket.. good buy for the price.,1
ORD069127,ID0667680181,2019-03-19,Nickolson,"[('Thunder line', 2), ('Candle Inferno', 2)]",5220.0,86.69247859843091,-37.8131489,144.971519,10,4774.14,Autumn,1,0.6305,five stars great phone! excellent condition for a refurbished phone. order arrived quickly. i'm happy with purchase.,1
ORD343505,ID0844481995,2019-07-25,Thompson,"[('iStream', 2), ('Candle Inferno', 1)]",730.0,52.16,-37.8206516,144.9486218,0,782.16,Winter,0,0.8986,nesecito ayuda el equipo no fundi√≥ a normal mente tengo problemas con el audio y se cuelga el equipo,0
ORD060804,ID2180822307,2019-01-19,Nickolson,"[('Thunder line', 2), ('iStream', 1)]",4510.0,72.69,-37.81688070000001,144.96150790000004,15,3906.19,Summer,0,0.7326,"great! buuuuuuut.... i'm a big fan of the features. however, if i put the phone in my pocket upside down, it will randomly restart. from what i have read, this could be an sd card or sim card issue. but i'd rather sacrifice my convenience to hold onto the phone and stay connected.",1
ORD208659,ID4716795186,2019-02-17,Thompson,"[('iStream', 1), ('Olivia x460', 1), ('Toshika 750', 1), ('iAssist Line', 1)]",7920.0,77.95,-37.8192438,144.9518413,10,7205.95,Summer,1,1.0591,one star this is a fake phone. beware!,0
ORD140295,ID0702352297,2019-04-20,Thompson,"[('pearTV', 2), ('Lucent 330S', 1), ('iAssist Line', 2), ('Alcon 10', 1)]",27250.0,81.51,-37.8056975,144.94140910000004,25,20519.01,Autumn,1,0.9224,best. get it. best phone i've ever owned. love it.,1
ORD227065,ID6167266594,2019-05-17,Nickolson,"[('Candle Inferno', 1), ('Lucent 330S', 1)]",1660.0,65.8,-37.8095201,144.9639661,15,1476.8,Autumn,1,1.1233,"it looks new, but it's locked by verizon it looks new, but it's locked by verizon. i was written ""unlocked"" on the description when i bought it",0
ORD263222,ID1492145817,2019-06-21,Thompson,"[('Thunder line', 2), ('Candle Inferno', 1), ('Alcon 10', 1)]",13740.0,63.22,-37.8129912,144.952109,15,11742.22,Winter,0,0.4447,five stars thanks the phone was brand new & in excellent shape with all accessories.,1
ORD355760,ID0373008467,2019-11-08,Bakers,"[('Olivia x460', 1), ('pearTV', 2), ('iStream', 2)]",14145.0,105.6,-37.8020031,144.9813434,10,12836.1,Spring,1,1.5112,five stars awesome,1
ORD387949,ID4883391027,2019-09-20,Bakers,"[('Toshika 750', 1), ('iStream', 2), ('Candle Inferno', 1), ('pearTV', 1)]",11360.0,86.22,-37.8195648,145.01410019999997,0,11446.22,Spring,0,1.9717,"bought one for the kids to use while we travel, lots of good free games. installed vlc media player from the app store and filled up the sd drive with movies. now they are nice and quite for hours on end.battery life is awesome!",1
ORD369855,ID0711331595,2019-03-11,Thompson,"[('Thunder line', 1), ('Candle Inferno', 2), ('Toshika 750', 1), ('Lucent 330S', 1)]",8590.0,79.83,-37.8071494,144.95907250000005,25,6522.33,Autumn,1,1.2217,"great phone though fingerprint scanner barely works, great phone though.",1
ORD368390,ID0778942527,2019-03-24,Bakers,"[('Olivia x460', 1), ('Candle Inferno', 1)]",1655.0,69.02,-37.8157743,145.0135759,10,1558.52,Autumn,1,1.7367,defective the screen stopped working after barely using.,0
ORD266536,ID5002592918,2019-03-04,Thompson,"[('iAssist Line', 1), ('Alcon 10', 2)]",20125.0,64.06,-37.8121457,144.95188180000005,10,18176.56,Autumn,0,0.4273,"excellent phone throughly enjoy this model phone, easy to use",1
ORD152026,ID4637139142,2019-06-23,Thompson,"[('Olivia x460', 2), ('Thunder line', 1), ('Universe Note', 2)]",11530.0,66.47310572514223,-37.8088649,144.9478186,25,8709.62,Winter,0,0.429,five stars great product....great os.,1
ORD426837,ID3213448207,2019-01-15,Thompson,"[('Universe Note', 1), ('iAssist Line', 2), ('Thunder line', 2)]",12260.0,81.4,-37.8006398,144.95762030000003,5,11728.4,Summer,0,1.6296,worth the buy! quality is amazing!,1
ORD244895,ID4421481865,2019-12-04,Nickolson,"[('iAssist Line', 2), ('iStream', 1), ('Thunder line', 1), ('Olivia x460', 2)]",9230.0,102.96,-37.8044794,144.9732073,10,8409.96,Summer,1,1.6039,i enjoy my candle inferno had it is easy to use get it,1
ORD138478,ID0581707513,2019-08-07,Thompson,"[('Universe Note', 1), ('Toshika 750', 1), ('Lucent 330S', 1), ('pearTV', 1)]",15310.0,70.06,-37.80618920000001,144.92946659999996,15,13083.56,Winter,0,1.7081,"todo excelente, la bater√≠a podr√≠a ser mejor. llevo meses us√°ndolo. el tama√±o es perfecto, muy r√°pido, con buen soporte, pantalla espectacular y c√°maras decentes. la calidad de construcci√≥n y en audio son excelentes",1
ORD261833,ID0575386073,2019-07-06,Nickolson,"[('Toshika 750', 2), ('Candle Inferno', 1), ('Lucent 330S', 2), ('Universe Note', 1)]",14980.0,49.86,-37.8203836,144.98423390000005,10,13531.86,Winter,0,1.3064,disappointed the phone was beat up and scratched poor condition,0
ORD176603,ID0060653700,2019-12-02,Thompson,"[('iStream', 2), ('Universe Note', 2), ('Toshika 750', 2)]",15840.0,87.88,-37.813514,144.94429519999997,15,13551.88,Summer,1,0.2613,"good phone overall they provided a very slow charger, not even a google charger. why did you bother sending a slow one, google?",1
ORD428534,ID5928027866,2019-06-20,Nickolson,"[('Alcon 10', 2), ('iAssist Line', 1), ('pearTV', 1)]",26435.0,65.85,-37.811361100000006,144.9747146,10,23857.35,Winter,0,0.9245,not bad has a tendency to turn off at the most inopportune times. most a good phone... for the price.,1
ORD030107,ID0282854637,2019-12-21,Bakers,"[('iAssist Line', 1), ('Universe Note', 1)]",5675.0,108.01,-37.8020123,145.0202706,15,4931.76,Summer,1,2.3747,... had my s7 edge for a few months now love it. its fast and reliable i have had my s7 edge for a few months now love it. its fast and reliable.,1
ORD347850,ID3106293369,2019-11-04,Thompson,"[('Universe Note', 2), ('Thunder line', 1), ('Lucent 330S', 2), ('iStream', 2)]",11840.0,81.37,-37.8067661,144.9322936,0,11921.37,Spring,0,1.4563,five stars great value and arrived earlier than expected.,1
ORD261195,ID0650273223,2019-11-18,Nickolson,"[('Thunder line', 1), ('Alcon 10', 1), ('Universe Note', 1), ('Olivia x460', 1)]",15805.0,106.83,-37.8103666,144.98004699999996,5,15121.58,Spring,1,1.3004,wonderful product! me and my husband love these phones ... wonderful product! me and my husband love these phones decent price for such a good product easy to use and no issues!,1
ORD091556,ID0746912610,2019-10-10,Nickolson,"[('pearTV', 1), ('Alcon 10', 1), ('iStream', 2)]",15560.0,106.3,-37.82480379999999,144.98470369999995,10,14110.3,Spring,1,1.501,great phone!!!!! what a phone üì±! this is everything that i wanted and needed in a phone,1
ORD323710,ID0603633263,2019-08-01,Thompson,"[('Alcon 10', 1), ('Candle Inferno', 2), ('Lucent 330S', 1), ('Universe Note', 1)]",14490.0,67.31,-37.80636320000001,144.95827419999995,10,13108.31,Winter,0,1.2102,price is higher price is high as it didn‚Äôt have original charger. also it doesn‚Äôt have ear phones at all.,1
ORD139068,ID2189269631,2019-02-23,Nickolson,"[('Olivia x460', 2), ('Universe Note', 1)]",5900.0,93.11,-37.81995670000001,144.9614133,5,5698.11,Summer,1,0.7315,"just awesome!! fantastic phone! mid range cost but flagship quality, just as ordered and includes a sd card. i'll definitely buy from you again.",1
ORD488800,ID0711331333,2019-05-23,Thompson,"[('pearTV', 1), ('Lucent 330S', 1)]",7540.0,78.32,-37.8066083,144.9571585,15,6487.32,Autumn,1,1.115,"excellent basic phone i purchased this as an emergency phone to keep in the car while traveling, and for use on a pay-as-you go phone plan. it is inexpensive, has all of the basic functions, and works well. compact, good battery life, good sound quality, sensitive. a good choice for basic use.",1
ORD019828,ID6167489444,2019-04-04,Nickolson,"[('Olivia x460', 1), ('Thunder line', 2), ('Universe Note', 1)]",9035.0,50.74,-37.812906,144.9598981,5,8633.99,Autumn,0,1.0591,"needs to ve specific about device very badly burned image on screen. doesnt look like new. need to be specific about the ""damage"" to screen.",0
ORD117996,ID1495248920,2019-08-31,Nickolson,"[('Toshika 750', 2), ('pearTV', 2), ('Olivia x460', 2)]",23710.0,76.34,-37.8194063,144.9638025,25,17858.84,Winter,1,0.5135,five stars great price.,1
ORD167687,ID6207106567,2019-08-08,Thompson,"[('Alcon 10', 2), ('Lucent 330S', 2), ('iAssist Line', 2)]",24810.0,62.26,-37.813376,144.944541,10,22391.26,Winter,0,0.2357,"pear phone 6s, g4gb i love the pear phone because for me it is easy to understand and have a long battery life.",1
ORD384157,ID0356098823,2019-08-19,Bakers,"[('Lucent 330S', 1), ('Universe Note', 1)]",4680.0,80.17,-37.8210291,144.9925782,5,4526.17,Winter,1,1.2501,"google knocks it out the park again ! camera amazing, use for work and leisure",1
ORD318627,ID6167266609,2019-04-02,Nickolson,"[('Olivia x460', 2), ('iStream', 1), ('Toshika 750', 2), ('Candle Inferno', 1)]",11670.0,78.92,-37.8135444,144.9655326,5,11165.42,Autumn,1,0.664,looks new works like new. love it. great phone. arrived quickly worked well. relatively new looking. battery would last all day. i'd heard original new version lasting longer. but all day average use. is fine with me especially considering the age of the phone. yawn groan feeling old now.,1
ORD407386,ID6167191158,2019-08-20,Nickolson,"[('iAssist Line', 2), ('Universe Note', 1), ('Olivia x460', 1)]",9125.0,63.59,-37.81539220000001,144.9665197,10,8276.09,Winter,0,0.4452,five stars i love everything about this phone,1
ORD486917,ID3788315451,2019-07-17,Nickolson,"[('Toshika 750', 2), ('Alcon 10', 1), ('Thunder line', 2)]",21950.0,50.31,-37.820045,144.9611555,0,22000.31,Winter,0,0.7557,"good, but not the best refurbished ever. 3d touch doesn‚Äôt work, the screen feels and look not like an original pear alcon 7 plus screen, feels roughly and fingers go not smooth at all. strange feeling when you use it , i put a glass screen protector and it works better, but is not how it needs to be, and 3d touch still no working!!! üòíüëé",0
ORD282937,ID0373645976,2019-10-25,Thompson,"[('Alcon 10', 2), ('Candle Inferno', 2), ('Olivia x460', 2), ('pearTV', 2)]",33830.0,94.27,-37.8088654,144.9291692,10,30541.27,Spring,1,1.6303,"one star it's not att phone, unable to have it turned on",0
ORD331674,ID0581702933,2019-04-18,Thompson,"[('Universe Note', 1), ('Thunder line', 1), ('Alcon 10', 2), ('pearTV', 2)]",36150.0,83.53,-37.8153797,144.92251059999995,15,30811.03,Autumn,1,2.1806,great service everything was smooth,1
ORD090358,ID0091970805,2019-06-08,Thompson,"[('Universe Note', 2), ('Thunder line', 2), ('Toshika 750', 1), ('pearTV', 2)]",28200.0,61.41,-37.8151851,144.94698459999995,15,24031.41,Winter,0,0.2797,"the best this far so i wanted the latest alcon but came across this gem! and boy am i relieved i went with redmi note 7. this phone exceeded my expectations, from design to software & it is value for your money. and not to discredit alcon, but the redmi note 7 is way better!!!",1
ORD222738,ID0202473725,2019-02-26,Thompson,"[('Universe Note', 1), ('Lucent 330S', 1), ('pearTV', 2)]",17300.0,85.0,-37.8040237,144.93345580000005,10,15655.0,Summer,1,1.5364,"phone's camera does not work, battery drains rapidly, apps shut down or won't work at all returning as the phone is defective",0
ORD046134,ID6167344559,2019-11-15,Nickolson,"[('iStream', 2), ('Thunder line', 2)]",4660.0,57.66,-37.8159843,144.97220359999997,5,4484.66,Spring,0,0.3727,phone charging cord does not work with phone. charger that came with the phone doesn't work. back cover is dry rotted.,0
ORD287338,ID2948774578,2019-01-04,Nickolson,"[('Thunder line', 1), ('Lucent 330S', 1)]",3410.0,98.42,-37.8081147,144.96874219999995,5,3337.92,Summer,1,1.1688,best phone i've ever had i've been using olivia since 2006 and now i feel that i have a better phone than anybody. i love this phone. i wasn't able to get the oh so orange one but the white one is still beatiful,1
ORD332082,ID0282825783,2019-05-26,Thompson,"[('Thunder line', 2), ('Universe Note', 1), ('Alcon 10', 2), ('iStream', 1)]",25860.0,81.87,-37.8025563,144.95074219999995,25,19476.87,Autumn,1,1.1716,buena compra funciona todo muy bien y el celular est√° padr√≠simo! no me ha fallado nadq,1
ORD048906,ID0560987521,2019-01-09,Thompson,"[('iAssist Line', 2), ('Alcon 10', 2), ('Candle Inferno', 2), ('Thunder line', 1)]",25390.0,96.99,-37.8216102,144.9439044,10,22947.99,Summer,1,1.033,santa dropped this off for our 4th grader along with expanded memory. he uses it for istream and youtube as well as minecraft and other apps. why spend hundreds on something for basic kids needs? i'm sure this will last him a few years and is well worth the price.,1
ORD278994,ID3366918692,2019-09-09,Bakers,"[('Alcon 10', 1), ('Thunder line', 1), ('Olivia x460', 2), ('Universe Note', 1)]",17030.0,77.58161202567533,-37.8123775,145.016109,25,12857.01,Spring,0,1.8551,mi8 lite arrived on time very responsive seems to be good value for the money the international charger adapter however could be better,1
ORD056643,ID0373649798,2019-03-19,Thompson,"[('iAssist Line', 2), ('iStream', 2), ('Lucent 330S', 2), ('Thunder line', 2)]",11570.0,80.99,-37.8090417,144.9295415,0,11650.99,Autumn,1,1.5936,"far so good. not had any problems yet so, far so good. not had any problems yet .....",1
ORD472788,ID6167418085,2019-07-25,Nickolson,"[('Toshika 750', 1), ('iStream', 2), ('Alcon 10', 1)]",13570.0,61.5,-37.8114514,144.9724364,25,10239.0,Winter,1,0.8347,when charging the phone stay hot real hot this phone only work for me for a year good phone poor battery and any battery i put in it it just keeps shutting off,0
ORD414643,ID6167344545,2019-10-16,Thompson,"[('Lucent 330S', 2), ('iAssist Line', 2), ('Toshika 750', 1), ('Universe Note', 2)]",18130.0,62.6,-37.812096,144.97043069999995,15,15473.1,Spring,0,0.7276,nothing the stylus pen will not stay in the holder so after one day of owning this phone it fell out and is lost. i now have to purchase a new one,0
ORD196169,ID1463620895,2019-11-18,Bakers,"[('Lucent 330S', 1), ('Thunder line', 1), ('iStream', 1)]",3560.0,65.33,-37.8177512,145.0054342,25,2735.33,Spring,0,1.2451,one star just looking at the price is shocking... these dinky phones were po,0
ORD389711,ID1224821938,2019-12-18,Thompson,"[('pearTV', 1), ('iAssist Line', 2)]",10760.0,93.98,-37.8134973,144.937773,5,10315.98,Summer,1,0.8226,i bought 2 one for each one of my daughters and they both like them.,1
ORD124746,ID3218293559,2019-05-19,Thompson,"[('iAssist Line', 2), ('Alcon 10', 1), ('iStream', 2)]",13700.0,66.1,-37.80368970000001,144.9549765,5,13081.1,Autumn,1,1.2181,dont be enticed by the price cramp. stop working in 2 days.,0
ORD127005,ID2189145390,2019-12-10,Thompson,"[('Universe Note', 1), ('Candle Inferno', 2), ('iStream', 2)]",4610.0,73.23,-37.8175535,144.9591934,0,4683.23,Summer,0,1.0591,five stars love this phone. great price and awesome shape. worth buying it.,1
ORD096543,ID0418548634,2019-02-21,Bakers,"[('Universe Note', 2), ('Alcon 10', 1), ('Olivia x460', 1)]",17075.0,97.75,-37.8214909,144.9871468,0,17172.75,Summer,1,1.4638,"love it, we are still learning the capabilities, having a lot of fun.",1
ORD031056,ID2291073983,2019-02-05,Thompson,"[('Universe Note', 1), ('iStream', 1), ('Thunder line', 1)]",5780.0,95.21,-37.8106585,144.95983700000005,5,5586.21,Summer,1,1.0591,google phones are the best great phone it made me never want to use anything besides google phones,1
ORD076134,ID3215191989,2019-03-03,Thompson,"[('Alcon 10', 1), ('Lucent 330S', 2), ('Universe Note', 1)]",14860.0,66.94,-37.8056528,144.95108290000005,15,12697.94,Autumn,0,0.8575,"great easy to use this cell was easy to work with, instructions were great and i couldn""t be more pleased.",1
ORD036662,ID4315827374,2019-07-06,Bakers,"[('Lucent 330S', 2), ('iAssist Line', 2), ('Thunder line', 1)]",9090.0,65.23,-37.8197631,144.9989418,15,7791.73,Winter,0,1.1351,"is cheap and beautiful easy to use is a good and nice phone , easy to used",1
ORD065242,ID3106293376,2019-11-04,Thompson,"[('Alcon 10', 2), ('iAssist Line', 1)]",20125.0,78.81,-37.8065987,144.9329051,10,18191.31,Spring,0,1.4174,seller said i had it too long warranty has expired they couldn't anything about it phone was good and works ok until 2 months and half after it stop working screen went blank couldn't see nothing on it,1
ORD371793,ID3494348621,2019-02-04,Nickolson,"[('iStream', 2), ('Candle Inferno', 1), ('Alcon 10', 2)]",18630.0,82.17694595526491,-37.8185268,144.9701227,10,16851.9,Summer,1,0.0508,works great otherwise glass back broke in the first week. would expect this phone if not any other would have came with a case.,1
ORD084744,ID0575572024,2019-11-06,Nickolson,"[('iStream', 1), ('Toshika 750', 1), ('Alcon 10', 1)]",13420.0,65.22,-37.8242079,144.98029240000002,15,11472.22,Spring,0,1.1325,"verizon locked phones falsely passed off as unlocked! rip off!! false claim of unlocked phones, these are locked to verizon, and will not start up with a sim card other than verizon!!!",0
ORD387981,ID4716795157,2019-12-22,Thompson,"[('Alcon 10', 1), ('iStream', 1), ('iAssist Line', 1)]",11325.0,93.69,-37.8188124,144.9535834,0,11418.69,Summer,1,0.8918,i have had not issues with my purchase. i found a great cover for it on line on digico and use it every night. thank you for your service.,1
ORD375206,ID6167489448,2019-08-26,Nickolson,"[('Thunder line', 2), ('Candle Inferno', 2), ('pearTV', 2), ('Olivia x460', 1)]",19065.0,77.68,-37.8138969,144.96035519999995,10,17236.18,Winter,1,0.963,five stars i love it!!! you can definitely trust the seller its the most important part!!! :),1
ORD274207,ID3215191993,2019-03-02,Thompson,"[('Alcon 10', 1), ('Toshika 750', 2)]",17590.0,64.13,-37.8052516,144.9498659,25,13256.63,Autumn,1,1.0591,"this was recommended by a verizon rep and the phone is hard ... this was recommended by a verizon rep and the phone is hard to use, shuts off sporadically and has to have the battery removed to re start, and gets worse reception than an older lg i had previously. would not reorder.",0
ORD058278,ID3191033042,2019-10-23,Nickolson,"[('Universe Note', 2), ('Olivia x460', 1)]",8125.0,100.6,-37.8118158,144.9669124,10,7413.1,Spring,1,0.7895,five stars i love the ativ and was sad when at&t stopped carrying it.,1
ORD462219,ID1463547037,2019-11-23,Bakers,"[('Alcon 10', 1), ('Universe Note', 2), ('Thunder line', 1), ('Candle Inferno', 1)]",18460.0,88.64,-37.8185812,145.00491269999995,5,17625.64,Spring,1,1.2799,no hemos recibido el telefono a√∫n no hemos recibido el tel√©fono. en varias oportunidades nos hemos comunicado con el transportista y no entregan el tel√©fono.,0
ORD362241,ID0144720305,2019-07-03,Thompson,"[('Olivia x460', 1), ('pearTV', 1), ('Candle Inferno', 2), ('iStream', 2)]",8695.0,67.45,-37.8198263,144.95554330000004,25,6588.7,Winter,0,1.0906,goodddd good phone,1
ORD003494,ID0332797060,2019-09-12,Bakers,"[('Lucent 330S', 1), ('pearTV', 2), ('Candle Inferno', 1), ('iStream', 2)]",14580.0,98.02,-37.8085998,145.00047659999996,25,11033.02,Spring,1,0.4867,five stars it's great!,1
ORD375204,ID0368380659,2019-06-03,Nickolson,"[('Universe Note', 1), ('Thunder line', 1), ('Olivia x460', 1), ('Toshika 750', 1)]",11175.0,69.87,-37.79912150000001,144.96759980000004,10,10127.37,Winter,1,2.1745,terrible service terrible service in nyc on tmobile,0
ORD086478,ID0257506562,2019-12-07,Thompson,"[('Candle Inferno', 1), ('Lucent 330S', 1), ('Toshika 750', 2), ('Olivia x460', 1)]",11525.0,85.42,-37.7997277,144.9630097,15,9881.67,Summer,0,2.0105,"extremely good value for the money, xp 6.1 is hard to beat. i was looking for nfc as a key feature and most phones in this price range do no have it. i find that weird because my old xp windows phone had nfc and cost me $55. very good screen, battery life, speed, etc. pretty good camera.",1
ORD024709,ID3676171113,2019-11-05,Bakers,"[('pearTV', 1), ('Universe Note', 2)]",13210.0,71.51,-37.8196201,145.01549530000003,5,12621.01,Spring,0,2.0792,incredibly disappointed with this purchase came without sim slot 1 and with sim slot 2 damaged. entirely unusable even after several trips to phone stores. we also missed our return window because we live overseas and didn't even hold the phone until a month after it arrived. incredibly disappointed with this purchase.,0
ORD322406,ID0291210710,2019-06-08,Nickolson,"[('Thunder line', 2), ('Universe Note', 1), ('Lucent 330S', 2), ('Olivia x460', 2)]",12720.0,67.49,-37.8068371,144.9651055,25,9607.49,Winter,0,1.366,"great phone ! best phone i've ever owned period . i've owned olivia ,pear etc and this one blows them away for half the money.",1
ORD067184,ID4297530208,2019-02-22,Thompson,"[('Olivia x460', 2), ('iStream', 2)]",2750.0,99.33,-37.80569620000001,144.9772251,10,2574.33,Summer,1,1.0591,"battery life incredible! i really, really like my phone. i've had just about every brand of phone available. the droid by far has the best battery life there is, which is one of the main reasons for purchasing it. it's a fun phone with great features...and best of all, it was a great price!",1
ORD298819,ID0361770607,2019-06-18,Bakers,"[('Alcon 10', 1), ('Universe Note', 1), ('Lucent 330S', 2)]",14860.0,60.66124258878189,-37.8009215,144.9810626,25,11200.63,Winter,0,1.6042,"not satisfied with this phone the screen is damaged, the phone has lots of scratches on the frame, the back is falling off",0
ORD010171,ID4909776709,2019-04-26,Bakers,"[('Olivia x460', 1), ('Candle Inferno', 1), ('pearTV', 2)]",14275.0,69.13,-37.8230304,145.0001615,15,12202.88,Autumn,1,1.5143,one star does not have space for sim,0
ORD326558,ID0176668193,2019-12-16,Thompson,"[('Lucent 330S', 2), ('Candle Inferno', 1)]",2890.0,93.98,-37.812987,144.9649265,10,2694.98,Summer,1,1.0591,awesome very pleased with the phone.,1
ORD001815,ID0331143090,2019-10-10,Nickolson,"[('Olivia x460', 2), ('Alcon 10', 2), ('iStream', 2)]",20650.0,72.03,-37.79951060000001,144.9687729,15,17624.53,Spring,0,2.1255,doesn't understand anything i ask and not very good at answering questions.i am extremely disappointed.,0
ORD450056,ID6167247298,2019-02-05,Nickolson,"[('Thunder line', 1), ('iStream', 2), ('Lucent 330S', 2)]",4940.0,51.81790256845007,-37.8182673,144.9642352,10,4502.06,Summer,0,0.4689,trash horrible. will not connect to network and keeps saying needs to system update evennafter updating it. cant even use it,0
ORD400117,ID0560984925,2019-06-30,Thompson,"[('iAssist Line', 1), ('pearTV', 2), ('iStream', 1), ('Thunder line', 1)]",17175.0,77.71,-37.8181093,144.9469292,10,15535.21,Winter,1,1.0591,five stars loving the s6 edge!!!!,1
ORD154881,ID0578120750,2019-03-09,Thompson,"[('Toshika 750', 2), ('iStream', 2), ('Candle Inferno', 1)]",9370.0,66.49,-37.8249784,144.9460069,25,7093.99,Autumn,1,1.373,does not let me connect with my library. very diapointed,0
ORD459568,ID0373645741,2019-12-23,Thompson,"[('pearTV', 2), ('Toshika 750', 1), ('Alcon 10', 1)]",25890.0,91.77,-37.8045416,144.91940290000005,0,25981.77,Summer,0,2.5961,looks and operates better than new surpassed all of my expectations!!!!!!!!!,1
ORD338463,ID6084169542,2019-09-20,Thompson,"[('Olivia x460', 1), ('Universe Note', 2), ('Toshika 750', 1)]",12445.0,108.67,-37.8030732,144.9631453,15,10686.92,Spring,1,1.7723,better sound.,1
ORD239687,ID0541122905,2019-11-21,Bakers,"[('Candle Inferno', 2), ('pearTV', 2), ('Alcon 10', 1)]",22430.0,81.29,-37.8027452,145.0094654,15,19146.79,Spring,0,1.4895,amazing,1
ORD461415,ID0356474249,2019-04-25,Bakers,"[('iAssist Line', 2), ('Toshika 750', 1), ('Thunder line', 1), ('Universe Note', 1)]",14400.0,66.76,-37.7994664,144.9892871,25,10866.76,Autumn,0,1.2835,battery sucks great except for the battery,1
ORD243207,ID4157116150,2019-11-18,Bakers,"[('Alcon 10', 2), ('Toshika 750', 2), ('Thunder line', 1)]",28720.0,76.63,-37.817663,144.9911581,0,28796.63,Spring,0,0.9256,"i purchased this for my parents who were always viewing facebook or other videos on their cell phones, this digico tablet is perfect for them! it's user friendly and if you have an digico gold account has great access to movies and music.",1
ORD258707,ID2207663849,2019-01-28,Thompson,"[('Thunder line', 1), ('Candle Inferno', 2), ('Lucent 330S', 1)]",4270.0,78.57,-37.8012858,144.9457072,10,3921.57,Summer,0,1.2733,overall great condition. used it for metropcs. couldn't activate online. had to take it to metropcs store and activate for $15. only had 1 minor scratch. overall great condition.,1
ORD180536,ID5424203859,2019-11-18,Thompson,"[('Toshika 750', 1), ('iStream', 2)]",4620.0,102.33,-37.8234924,144.9808826,10,4260.33,Spring,1,1.0591,muy bueno perfecto!!!,1
ORD244833,ID6167417949,2019-03-09,Nickolson,"[('Universe Note', 2), ('iStream', 2)]",7200.0,65.21,-37.8141304,144.96319640000004,25,5465.21,Autumn,0,0.7478,i love it.....................!!!!!!!!!!!!!!!!!!!!!!,1
ORD459483,ID6167489475,2019-03-05,Nickolson,"[('Toshika 750', 1), ('Universe Note', 1), ('Lucent 330S', 1), ('iStream', 2)]",9300.0,88.08211293263966,-37.8159653,144.9609759,25,7055.26,Autumn,1,0.8089,"it was cheaper to buy a new phone than to ... it was cheaper to buy a new phone than to fix a broken screen, and this one works perfectly. if i were buying something new though i'd look for something with more memory.",1
ORD394970,ID0266733534,2019-09-19,Nickolson,"[('Lucent 330S', 1), ('Thunder line', 1), ('Toshika 750', 1)]",7730.0,103.37,-37.8097118,144.97655480000003,25,5900.87,Spring,1,1.165,good basic phone good basic phone. the numbers could be larger and letters when typing texting could be larger. the battery life is shorter than advertised.,1
ORD179303,ID0774546433,2019-07-06,Thompson,"[('Lucent 330S', 1), ('Olivia x460', 1)]",2455.0,69.23,-37.8058271,144.9594536,15,2155.98,Winter,0,1.3293,very good very good,1
ORD495094,ID0227324345,2019-01-28,Thompson,"[('Lucent 330S', 1), ('iAssist Line', 1), ('Alcon 10', 1), ('Thunder line', 1)]",14585.0,96.19,-37.8005249,144.9908738,15,12493.44,Summer,1,1.0591,five stars works great!! no complaints!,1
ORD005404,ID1479905329,2019-06-07,Nickolson,"[('Universe Note', 2), ('Thunder line', 2), ('iStream', 1), ('Olivia x460', 1)]",12635.0,78.62,-37.821130200000006,144.9577365,15,10818.37,Winter,1,1.0765,five stars excellent,1
ORD166933,ID1492410162,2019-11-03,Nickolson,"[('Universe Note', 1), ('Lucent 330S', 1), ('Thunder line', 2)]",9040.0,109.24,-37.8045307,144.963331,25,6889.24,Spring,1,1.6584,fast o like so much,1
ORD399363,ID1686695034,2019-05-24,Thompson,"[('iStream', 1), ('iAssist Line', 2), ('Toshika 750', 2)]",13240.0,81.88,-37.7983009,144.9442044,10,11997.88,Autumn,1,1.6196,five stars i'm satisfied with this item,1
ORD116354,ID4793613434,2019-05-08,Thompson,"[('Olivia x460', 2), ('Candle Inferno', 1), ('iStream', 2), ('pearTV', 1)]",9490.0,69.95,-37.8084929,144.9241208,5,9085.45,Autumn,0,2.0711,awesome phone i love the google phones and this pixel is awesome. it is a great size and i love the os.,1
ORD333526,ID0233314999,2019-06-10,Bakers,"[('Thunder line', 1), ('Universe Note', 2), ('Olivia x460', 2), ('iAssist Line', 1)]",13755.0,65.3,-37.80408720000001,144.9774972,5,13132.55,Winter,1,1.6928,olivia s8 is the best. but mine is broken i got the phone but it's broken at the backüò¢,0
ORD457598,ID0579971507,2019-01-29,Thompson,"[('iStream', 1), ('Lucent 330S', 1), ('Toshika 750', 1)]",5700.0,51.32,-37.8115833,144.9457276,25,4326.32,Summer,0,0.1692,"""factory unlocked"" i would never buy this product again. supposedly factory unlocked but has intrusive sprint bloatware that pops up every time the phone is turned on. spen has also never been able to connect to the phone.",0
ORD174617,ID0400738477,2019-09-03,Thompson,"[('Lucent 330S', 1), ('iAssist Line', 2)]",5680.0,99.03,-37.8121346,144.94146630000003,5,5495.03,Spring,1,0.4963,excellent better than expected,1
ORD150069,ID4283908167,2019-06-27,Bakers,"[('Alcon 10', 2), ('Toshika 750', 1)]",22220.0,85.55132708519335,-37.8106389,145.0006749,0,22293.29,Winter,1,0.484,"it's an amazing device. this device is really amazing, with lot of possibilities. it has a very speedy access to every connection demands. i am very satisfied with it.",1
ORD071508,ID0767584756,2019-09-29,Thompson,"[('pearTV', 2), ('Toshika 750', 1), ('Alcon 10', 2), ('Candle Inferno', 2)]",35700.0,75.58,-37.8072116,144.95085600000004,15,30420.58,Spring,0,0.6932,"value and quality i bought this for my goddaughter i have no dislikes, shes very happy with the phone.",1
ORD097367,ID1463620745,2019-05-09,Bakers,"[('iStream', 2), ('Thunder line', 1)]",2480.0,80.05,-37.8167792,145.0055926,25,1940.05,Autumn,1,1.1833,nice size screen easy and light weight to take to class,1
ORD150438,ID3115762689,2019-06-09,Thompson,"[('iAssist Line', 1), ('iStream', 1), ('Candle Inferno', 1), ('Thunder line', 2)]",7165.0,66.83,-37.8057025,144.95758840000005,15,6157.08,Winter,0,1.2075,"very nice phone, easy to keep in your hand vs. large phone, bought for my friends daughter. she was very happy with it.",1
ORD329580,ID1725216465,2019-12-13,Thompson,"[('Lucent 330S', 2), ('Toshika 750', 2), ('pearTV', 2)]",23720.0,82.76,-37.8022824,144.96222350000005,10,21430.76,Summer,0,1.7647,effective.. good memory and storage,1
ORD001422,ID0163648002,2019-05-27,Nickolson,"[('Universe Note', 2), ('Lucent 330S', 1)]",8130.0,63.36,-37.8202136,144.9601579,0,8193.36,Autumn,0,0.8454,beautiful picture. enjoying different apps and looking forward to hours of fun.,1
ORD408301,ID5301568573,2019-09-30,Thompson,"[('Lucent 330S', 2), ('iStream', 2), ('Olivia x460', 1)]",3985.0,101.61,-37.80877570000001,144.94207759999995,5,3887.36,Spring,1,0.6172,"great phone skeptical at first, but works perfect on verizon for me! it is what i am using now....",1
ORD063083,ID0634783576,2019-12-09,Thompson,"[('Candle Inferno', 2), ('pearTV', 2), ('Lucent 330S', 2), ('Olivia x460', 1)]",13220.0,93.01,-37.8124005,144.93669219999995,10,11735.52,Summer,1,0.9131,five stars good phone love it,1
ORD168719,ID0287630727,2019-10-23,Thompson,"[('iStream', 2), ('iAssist Line', 1), ('Olivia x460', 2)]",4975.0,76.98,-37.8051798,144.94512340000003,10,4554.48,Spring,0,0.8515,"good product, prompt service product arrived on time and met my expectations. i‚Äôll surely patronize them again.",1
ORD442733,ID6167231005,2019-04-21,Thompson,"[('Universe Note', 1), ('pearTV', 1), ('Lucent 330S', 1)]",10990.0,66.47,-37.8172549,144.9531826,5,10506.97,Autumn,0,0.7411,best smart phone ever! this is a great phone. my husband loves how it integrates with his business software. he says he would highly recommend this phone.,1
ORD418684,ID3161949485,2019-03-14,Thompson,"[('Alcon 10', 2), ('pearTV', 2)]",30520.0,51.55,-37.80803579999999,144.95757719999995,5,29045.55,Autumn,0,1.0586,"buena calidad precio al principio todo maravilloso, luego vino la fat√≠dica actualizaci√≥n de febrero que dej√≥ el tel√©fono muerto, all√≠ empez√≥ todo una serie de contratiempos ya que la empresa no tiene soporte en estados unidos, tuve que tramitar varias veces el reembolso por digico.",0
ORD063549,ID5251259524,2019-04-05,Thompson,"[('Alcon 10', 1), ('pearTV', 2), ('Lucent 330S', 1)]",22800.0,65.17,-37.8155778,144.9388428,5,21725.17,Autumn,0,0.7924,five stars good,1
ORD434166,ID5109337888,2019-01-24,Nickolson,"[('Candle Inferno', 2), ('Universe Note', 1), ('Lucent 330S', 1), ('Toshika 750', 2)]",14180.0,97.95,-37.823123,144.9830236,0,14277.95,Summer,1,1.2875,so far so good. just got it and i am trying to figure out all the things it can do. the product itself is very well made.. and easy to set up.,1
ORD365033,ID0282854607,2019-04-03,Bakers,"[('Candle Inferno', 1), ('pearTV', 1), ('Toshika 750', 2), ('Thunder line', 1)]",17560.0,83.79,-37.802871,145.01663330000005,10,15887.79,Autumn,1,2.0425,a great product i am new to using smartphones so my review will be a little bias. it is easy to use for me due to the fact i have 1 hand to use.,1
ORD115088,ID0207141373,2019-04-22,Thompson,"[('iStream', 2), ('Alcon 10', 2), ('Lucent 330S', 1)]",19430.0,82.81,-37.8242539,144.9537852,5,18541.31,Autumn,1,1.418,five stars perfect!!!,1
ORD248170,ID2766300604,2019-10-09,Nickolson,"[('iStream', 2), ('Olivia x460', 2), ('Candle Inferno', 2), ('iAssist Line', 1)]",5835.0,105.44,-37.8067131,144.9688406,0,5940.44,Spring,1,1.3241,four stars phone was great service sucked,1
ORD233498,ID1479897552,2019-02-02,Nickolson,"[('Alcon 10', 1), ('Thunder line', 1)]",11130.0,94.98,-37.8202414,144.9576895,15,9555.48,Summer,1,1.059,good option it is a good phone. it is cheap and the cameras are better than expected.,1
ORD488061,ID0452380996,2019-04-21,Thompson,"[('pearTV', 2), ('Thunder line', 1), ('Toshika 750', 1)]",19120.0,81.03,-37.8248132,144.94906519999995,0,19201.03,Autumn,1,1.3627,five stars it's good,1
ORD346693,ID3313046870,2019-07-21,Thompson,"[('Thunder line', 1), ('Lucent 330S', 1), ('Candle Inferno', 1), ('Toshika 750', 1)]",8160.0,78.09,-37.81905379999999,144.953948,10,7422.09,Winter,1,0.933,great phone i use this phone for work as a realtor. great gps and apps. i literately don't need my computer any longer on home showings. very quick response and takes great photos.,1
ORD090724,ID4307285742,2019-08-30,Bakers,"[('Lucent 330S', 2), ('Alcon 10', 1)]",11410.0,70.45,-37.8161635,145.0099421,15,9768.95,Winter,0,1.4645,i like everything about my cell phone until now everything is positive about the cell phone great phone,1
ORD226663,ID5257193656,2019-01-24,Nickolson,"[('Universe Note', 1), ('Alcon 10', 1), ('Olivia x460', 1), ('pearTV', 2)]",26245.0,72.92,-37.8127872,144.9770046,15,22381.17,Summer,0,0.9207,best quality wonderful product,1
ORD197235,ID0291483920,2019-08-21,Thompson,"[('iStream', 2), ('Alcon 10', 2)]",18200.0,64.02,-37.815388,144.9509803,0,18264.02,Winter,0,1.0591,nice phone great phone and great price. very loud ringer which i need also that is waterproof is a plus. reception is better than any phone i have owned,1
ORD288187,ID1404216317,2019-12-30,Bakers,"[('iStream', 1), ('Candle Inferno', 2), ('Thunder line', 2)]",5370.0,82.46,-37.8011507,144.98875619999995,10,4915.46,Summer,1,1.1375,what a waste. it broke within three weeks. don't have original packaging so i can't return it. what a waste.,0
ORD125825,ID0746917815,2019-10-18,Nickolson,"[('Lucent 330S', 1), ('Olivia x460', 2)]",3680.0,82.02,-37.8254771,144.9824543,5,3578.02,Spring,0,1.369,"i would buy a renewed phone again. product was delived on time, it was easy to set up. it looks new.",1
ORD258802,ID0145261701,2019-12-13,Nickolson,"[('Lucent 330S', 2), ('Universe Note', 2), ('pearTV', 2), ('Thunder line', 1)]",24160.0,91.19,-37.8147513,144.96288,15,20627.19,Summer,1,0.7261,"five stars the phone is in excellent conditions and works great as well, it looks like new, and gsm unlocked.",1
ORD328064,ID0287637393,2019-09-26,Thompson,"[('Alcon 10', 1), ('iStream', 1), ('Olivia x460', 2), ('Lucent 330S', 1)]",12780.0,107.11,-37.8013748,144.95302819999995,10,11609.11,Spring,1,1.3625,"i've only had the phone one week i like the size, the icon display and the ability to use a pay-as-you-go sim card.",1
ORD120844,ID0452381158,2019-11-26,Thompson,"[('Toshika 750', 2), ('Lucent 330S', 1)]",9870.0,106.13,-37.8250103,144.94951709999995,0,9976.13,Spring,1,1.3901,excellent product good product good transaction,1
ORD188202,ID6167231022,2019-10-27,Thompson,"[('Candle Inferno', 2), ('Lucent 330S', 1), ('Olivia x460', 2)]",13220.0,84.0,-37.8150623,144.9530711,25,11735.52,Spring,1,0.5911,defective out of the box!!! i received defective item and it doesn't even turn on!!! be careful buying products from this seller!,0
ORD285421,ID3161948920,2019-10-31,Thompson,"[('Thunder line', 1), ('Universe Note', 1), ('pearTV', 2), ('Alcon 10', 2)]",36150.0,101.18,-37.8088409,144.9566591,10,32636.18,Spring,1,1.0591,great phone best phone i've had.,1
ORD330466,ID0617564713,2019-09-28,Nickolson,"[('Candle Inferno', 1), ('iAssist Line', 2), ('pearTV', 2), ('iStream', 1)]",17650.0,74.04,-37.8210479,144.9655492,5,16841.54,Spring,0,0.4454,excellent cell phone excellent price for a great cell phone. meets all my expectations...,1
ORD272635,ID0033318862,2019-02-01,Bakers,"[('Toshika 750', 2), ('Alcon 10', 2), ('Universe Note', 1), ('iAssist Line', 2)]",34440.0,113.48,-37.7926313,144.97140119999997,25,25943.48,Summer,1,1.0591,"good condition battery life is decent, but i wish it lasted longer than it does. it really sucks that i can't make my contact's message notification sounds different from everyone else's like i could on my s5 active.",1
ORD148567,ID4754200374,2019-04-01,Thompson,"[('Alcon 10', 1), ('Thunder line', 2), ('Universe Note', 1), ('pearTV', 2)]",29380.0,66.73,-37.8151669,144.9275206,25,22101.73,Autumn,0,1.7414,excellent product the product has been very good. i had used this cell phone in one of my projects and it worked wonders. i will definitely recommend this to anyone interested in buying it....,1
ORD091070,ID0650271243,2019-12-26,Nickolson,"[('pearTV', 1), ('Thunder line', 1), ('Alcon 10', 2)]",26390.0,95.0,-37.8141514,144.9775317,15,22526.5,Summer,1,0.8586,the wife loves it i was very apprehensive buying a used phone online with all the ‚Äúhorror‚Äù stories i‚Äôve heard. seemed like a reputable seller and the item arrived as described without issue.,1
ORD160134,ID2174966072,2019-06-18,Thompson,"[('iStream', 2), ('Olivia x460', 1), ('Thunder line', 2), ('Candle Inferno', 2)]",6745.0,63.89,-37.8170541,144.9533907,25,5122.64,Winter,0,0.7395,"this phone is amazing. i love the panorama feature of the camera this phone is amazing. i love the panorama feature of the camera, the camera is so clean and clear it makes pictures look better. perfect replacement phone for my s4 that went bad. i love this better.",1
ORD349292,ID2615820737,2019-12-06,Thompson,"[('Thunder line', 1), ('iAssist Line', 1), ('pearTV', 1)]",13220.0,85.26,-37.8061677,144.9584226,15,11735.52,Summer,1,1.2335,"if you want to listen to music and have it come through several of the thunder/line units simultaneously, you must pay a monthly fee. i thought this was digico, not pear??!! i‚Äôve paid for many of these so i could have one in each room, is that not enough of my money??!!??",0
ORD261940,ID4069715678,2019-02-25,Thompson,"[('Alcon 10', 2), ('Thunder line', 1), ('pearTV', 2)]",32700.0,103.93,-37.8000443,144.9605432,10,29533.93,Summer,1,1.8387,lot to learn it's nothing like it this is the best phone i have ever had it truly is awesome,1
ORD030151,ID0092149931,2019-01-05,Thompson,"[('iStream', 2), ('Toshika 750', 2)]",13220.0,85.33,-37.822954,144.9550304,10,11735.52,Summer,1,1.3416,"no phone! hi, i was so exciting for my new phone and i received is a box already opened by someone else. the phone is missing. so disappointing!!!",0
ORD246928,ID0547586431,2019-10-15,Bakers,"[('pearTV', 1), ('Alcon 10', 2), ('Universe Note', 2), ('Olivia x460', 1)]",32335.0,102.5,-37.8118849,144.9853537,0,32437.5,Spring,1,0.8938,five stars very good!,1
ORD050531,ID0702373554,2019-02-05,Thompson,"[('Olivia x460', 1), ('pearTV', 1), ('Lucent 330S', 2), ('Toshika 750', 1)]",14315.0,72.42,-37.8066244,144.9416945,0,14387.42,Summer,0,0.8227,got it for $60 during black friday. i also have 7inch inferno tablet. for few more bucks this tablet is way better than the 7 inch non hd inferno.,1
ORD259026,ID0060097043,2019-09-14,Thompson,"[('Thunder line', 1), ('iAssist Line', 1)]",13220.0,76.65,-37.8169077,144.9520437,5,11735.52,Spring,0,0.6431,five stars the best one in the store,1
ORD216134,ID0663120913,2019-09-28,Thompson,"[('iStream', 2), ('pearTV', 1)]",6610.0,92.78,-37.8003489,144.95502140000005,15,5711.28,Spring,1,1.5399,that the phone is not working properly it doesn't have the fast charger and no head phones it keeps glitching,0
ORD035472,ID0702363502,2019-08-29,Thompson,"[('Universe Note', 1), ('iStream', 1), ('iAssist Line', 2)]",8050.0,49.98,-37.8062,144.94206269999995,10,7294.98,Winter,0,0.8444,5g wifi not support 5g wifi not supportable...,0
ORD173100,ID2371477800,2019-02-15,Bakers,"[('Universe Note', 2), ('Toshika 750', 1)]",11220.0,85.14,-37.8016819,144.98138640000005,15,9622.14,Summer,1,1.5295,would not work we set the phone up over the phone with sprint (replacing a sprint phone) but it just kept resetting and kept updating for days. took it to sprint and they started over but it would randomly shut off and restart. a huge bummer.,0
ORD475295,ID0363385721,2019-06-23,Thompson,"[('Alcon 10', 1), ('iStream', 2)]",9250.0,70.44,-37.7993717,144.9579071,0,9320.44,Winter,0,1.761,great tolles telefon,1
ORD391221,ID2975262283,2019-06-07,Bakers,"[('Toshika 750', 2), ('Candle Inferno', 2), ('Universe Note', 2), ('Olivia x460', 1)]",17625.0,69.45,-37.8237048,144.9970525,10,15931.95,Winter,0,1.5344,"this phone is ok after restore to the facktory settings it was easy connect to zune....everyting i do...its running perfrectly, update possible. the pc does recognize the phone, its just awesome!",1
ORD239431,ID6245731080,2019-05-23,Nickolson,"[('iAssist Line', 1), ('Alcon 10', 1), ('Olivia x460', 1)]",12400.0,80.55,-37.8106251,144.9781055,5,11860.55,Autumn,1,1.1632,works great! perfect for my office!,1
ORD169534,ID0332796982,2019-12-26,Thompson,"[('Universe Note', 2), ('Lucent 330S', 1), ('Olivia x460', 2), ('Candle Inferno', 2)]",11440.0,73.48,-37.8095167,144.99974,0,11513.48,Summer,1,0.4,i need some answers as i am not at all pleased. i don't know what the hell is going on here. this is supposed to be a brand new phone why does it have verizon behind it and why does it have scratches. i need some answers as i am not at all pleased.,0
ORD148536,ID4716795629,2019-09-06,Thompson,"[('Thunder line', 2), ('Universe Note', 1)]",7810.0,62.24,-37.8188014,144.9531468,5,7481.74,Spring,0,0.8666,tel√©fono da√±ado el tel√©fono no tiene buena respuesta t√°ctil. incluso cerrar ventanas es complicado. definitivamente no funciona bien. una mala compra. si hubiese conocido que iba a tener esos problemas no lo hubiese comprado. estoy en ecuador as√≠ que ni siquiera puedo devolverlo.,0
ORD348448,ID0202447296,2019-11-16,Thompson,"[('Candle Inferno', 2), ('Thunder line', 1)]",3040.0,77.9,-37.8063179,144.9404614,15,2661.9,Spring,0,0.9155,love it great device,1
ORD426130,ID0577456444,2019-06-03,Bakers,"[('iStream', 1), ('Thunder line', 2)]",4510.0,67.07,-37.8230924,144.9880989,25,3449.57,Winter,1,1.5871,i would love this but there is no way to stop the screen from constantly scrolling through ‚Äúthings to try‚Äù. if digico would make this a setting i would change my review to 5 stars.,0
ORD418619,ID2967053354,2019-11-11,Bakers,"[('iAssist Line', 2), ('Lucent 330S', 1), ('Toshika 750', 1)]",10000.0,72.59,-37.80737,144.9980726,0,10072.59,Spring,0,0.3845,everything works great i like everything about this phone,1
